{"0":{"lat":52.1630859375,"lon":-2.1533203125,"address":"5R7W+6M Worcester, UK"}}
{"0":{"lat":51.6796875,"lon":-1.23046875,"address":"93 Lower Radley, Abingdon OX14 3BB, UK"}}
{"0":{"lat":51.1083984375,"lon":-1.142578125,"address":"4V54+9X Alresford, UK"}}
{"0":{"lat":52.03125,"lon":0.087890625,"address":"23JQ+G5 Royston, UK"}}
{"0":{"lat":53.7890625,"lon":-0.439453125,"address":"Cottingham Harland Way, Cottingham HU16 5SZ, UK"}}
{"0":{"lat":51.767578125,"lon":0.3076171875,"address":"Q895+22 Ongar, UK"}}
{"0":{"lat":51.1083984375,"lon":-2.63671875,"address":"4957+98 Glastonbury, UK"}}
{"0":{"lat":51.943359375,"lon":-4.5703125,"address":"WCVH+8V Llanfyrnach, UK"}}
{"0":{"lat":53.349609375,"lon":-2.8125,"address":"85XP+RX Liverpool, UK"}}
{"0":{"lat":54.228515625,"lon":-2.0654296875,"address":"6WHM+CR Leyburn, UK"}}
{"0":{"lat":52.998046875,"lon":-3.6474609375,"address":"X9X3+62 Bala, UK"}}
{"0":{"lat":52.822265625,"lon":-0.5712890625,"address":"RCCH+WF Grantham, UK"}}
{"0":{"lat":54.052734375,"lon":-0.7470703125,"address":"3733+35 Malton, UK"}}
{"0":{"lat":54.2724609375,"lon":-0.8349609375,"address":"75C8+X2 Pickering, UK"}}
{"0":{"lat":52.3828125,"lon":-1.318359375,"address":"9MMJ+4MC Rugby, UK"}}
{"0":{"lat":50.4931640625,"lon":-3.8671875,"address":"F4VM+74 Buckfastleigh, UK"}}
{"0":{"lat":53.6572265625,"lon":-0.17578125,"address":"MR4F+VM Hull, UK"}}
{"0":{"lat":52.3828125,"lon":0.3955078125,"address":"1 Fen Farm Bungalow, Bury Saint Edmunds IP28 8QP, UK"}}
{"0":{"lat":52.2509765625,"lon":-0.966796875,"address":"33 Vienne Cl, Northampton NN5 6HE, UK"}}
{"0":{"lat":53.5693359375,"lon":-1.9775390625,"address":"H29C+PX Oldham, UK"}}
{"0":{"lat":52.8662109375,"lon":-1.142578125,"address":"VV84+FX Nottingham, UK"}}
{"0":{"lat":51.9873046875,"lon":-3.0322265625,"address":"XXP9+W4 Llanveynoe, Hereford, UK"}}
{"0":{"lat":51.4599609375,"lon":-0.2197265625,"address":"3A Ravenna Rd, London SW15 6AW, UK"}}
{"0":{"lat":51.2841796875,"lon":-0.791015625,"address":"Southwood Woodland - Kennel Lane Entrance, Kennels Ln, Farnborough GU14 0LL, UK"}}
{"0":{"lat":51.9873046875,"lon":-4.5703125,"address":"XCPH+WV Llanfyrnach, UK"}}
{"0":{"lat":52.0751953125,"lon":-3.779296875,"address":"36GC+37 Llandovery, UK"}}
{"0":{"lat":53.3935546875,"lon":-1.2744140625,"address":"9PVG+C6 Rotherham, UK"}}
{"0":{"lat":50.9765625,"lon":-1.8896484375,"address":"X4G6+J4 Fordingbridge, UK"}}
{"0":{"lat":52.03125,"lon":-0.703125,"address":"K1 Timbold Dr, Kents Hill, Milton Keynes MK7 6BZ, UK"}}
{"0":{"lat":52.20703125,"lon":-0.966796875,"address":"624M+R7 Northampton, UK"}}
{"0":{"lat":52.3828125,"lon":-3.9990234375,"address":"92M2+49 Aberystwyth, UK"}}
{"0":{"lat":53.4814453125,"lon":-2.3291015625,"address":"9b Gilda Brook Rd, Salford M50 1ZD, UK"}}
{"0":{"lat":51.15234375,"lon":0.966796875,"address":"5X28+WP Ashford, UK"}}
{"0":{"lat":51.064453125,"lon":-1.93359375,"address":"3378+QH Salisbury, UK"}}
{"0":{"lat":51.767578125,"lon":-2.28515625,"address":"QP97+2W Stonehouse, UK"}}
{"0":{"lat":53.349609375,"lon":-3.2958984375,"address":"8PX3+RJ Holywell, UK"}}
{"0":{"lat":52.55859375,"lon":-0.17578125,"address":"HR5F+CM Peterborough, UK"}}
{"0":{"lat":52.646484375,"lon":1.2744140625,"address":"39 Soleme Rd, Norwich NR3 2LR, UK"}}
{"0":{"lat":53.0859375,"lon":-1.845703125,"address":"35P3+9PF Leek, UK"}}
{"0":{"lat":53.876953125,"lon":-1.9775390625,"address":"V2GC+QX Keighley, UK"}}
{"0":{"lat":51.9873046875,"lon":-0.87890625,"address":"X4PC+WC Milton Keynes, UK"}}
{"0":{"lat":50.6689453125,"lon":-3.9990234375,"address":"M292+H9 Okehampton, UK"}}
{"0":{"lat":51.8994140625,"lon":-4.4384765625,"address":"Dinas Farm, Talog, Carmarthen SA33 6PD, UK"}}
{"0":{"lat":53.876953125,"lon":-2.8125,"address":"V5GP+QX Preston, UK"}}
{"0":{"lat":54.7119140625,"lon":-3.0322265625,"address":"PX69+Q4 Penrith, UK"}}
{"0":{"lat":52.5146484375,"lon":-2.1533203125,"address":"The Crooked House, Crooked House Ln, Himley, Dudley DY3 4DA, UK"}}
{"0":{"lat":52.470703125,"lon":-2.8564453125,"address":"F4CV+7C Craven Arms, UK"}}
{"0":{"lat":52.3388671875,"lon":-2.7685546875,"address":"86QJ+GH Ludlow, UK"}}
{"0":{"lat":52.646484375,"lon":-0.087890625,"address":"JWW6+HR Peterborough, UK"}}
{"0":{"lat":51.328125,"lon":-1.40625,"address":"8HHV+6F Newbury, UK"}}
{"0":{"lat":53.1298828125,"lon":-3.5595703125,"address":"4CHR+X5 Denbigh, UK"}}
{"0":{"lat":53.2177734375,"lon":-2.1533203125,"address":"6R9W+4M Macclesfield, UK"}}
{"0":{"lat":51.8994140625,"lon":-0.263671875,"address":"Hitchwood Trail, Hitchwood Ln, Hitchin SG4 7RW, UK"}}
{"0":{"lat":52.470703125,"lon":0.17578125,"address":"F5CG+78 March, UK"}}
{"0":{"lat":52.119140625,"lon":0.0,"address":"Malton Farm Cottages, Malton Rd, Royston SG8 6PG, UK"}}
{"0":{"lat":53.96484375,"lon":-1.0107421875,"address":"5 Blue Coat, Murton, York YO19 5WA, UK"}}
{"0":{"lat":54.580078125,"lon":-2.7685546875,"address":"H6JJ+2H Penrith, UK"}}
{"0":{"lat":51.3720703125,"lon":-0.9228515625,"address":"Farley Court, Church Ln, Farley Hill, Reading RG7 1TT, UK"}}
{"0":{"lat":52.119140625,"lon":0.52734375,"address":"4G9G+MW Sudbury, UK"}}
{"0":{"lat":51.50390625,"lon":-0.3076171875,"address":"11 Coningsby Rd, London W5 4HR, UK"}}
{"0":{"lat":52.9541015625,"lon":-3.7353515625,"address":"X737+JV Bala, UK"}}
{"0":{"lat":50.80078125,"lon":-2.5927734375,"address":"RC24+8V Dorchester, UK"}}
{"0":{"lat":52.0751953125,"lon":-0.087890625,"address":"3WG6+3R Royston, UK"}}
{"0":{"lat":51.0205078125,"lon":-0.5712890625,"address":"2CCH+6F Billingshurst, UK"}}
{"0":{"lat":52.9541015625,"lon":-2.724609375,"address":"X73G+J5 Whitchurch, UK"}}
{"0":{"lat":52.734375,"lon":-0.87890625,"address":"P4MC+PC Melton Mowbray, UK"}}
{"0":{"lat":52.822265625,"lon":-2.021484375,"address":"RXCH+WC Stafford, UK"}}
{"0":{"lat":52.4267578125,"lon":-4.482421875,"address":"9C4QCGG9+P2"}}
{"0":{"lat":53.4814453125,"lon":-1.93359375,"address":"F3J8+HH Glossop, UK"}}
{"0":{"lat":51.416015625,"lon":-0.615234375,"address":"C98M+CW Ascot, UK"}}
{"0":{"lat":52.03125,"lon":-4.306640625,"address":"Pengraigwen, Carmarthenshire, Llandysul SA44 4RN, UK"}}
{"0":{"lat":54.3603515625,"lon":-3.0322265625,"address":"9X69+44 Ambleside, UK"}}
{"0":{"lat":52.6904296875,"lon":-0.52734375,"address":"MFRF+53 Stamford, UK"}}
{"0":{"lat":51.7236328125,"lon":-4.482421875,"address":"PGF9+F2 Laugharne, UK"}}
{"0":{"lat":50.9765625,"lon":-1.7138671875,"address":"X7GP+V5, Salisbury SP5 2NW, UK"}}
{"0":{"lat":51.9873046875,"lon":-1.2744140625,"address":"2 Station Rd, Aynho, Banbury OX17 3BP, UK"}}
{"0":{"lat":53.3935546875,"lon":-3.1201171875,"address":"28 Sycamore Cl, Greasby, Wirral CH49 4QL, UK"}}
{"0":{"lat":51.591796875,"lon":-0.6591796875,"address":"H8RR+P8 High Wycombe, UK"}}
{"0":{"lat":53.0419921875,"lon":-1.0546875,"address":"2WRW+Q4 Nottingham, UK"}}
{"0":{"lat":52.4267578125,"lon":-1.142578125,"address":"CVG4+PX Lutterworth, UK"}}
{"0":{"lat":52.7783203125,"lon":1.0546875,"address":"Q3H3+8V Dereham, UK"}}
{"0":{"lat":54.2724609375,"lon":-1.5380859375,"address":"7FC6+XQ Bedale, UK"}}
{"0":{"lat":52.470703125,"lon":-4.2626953125,"address":"9C4QFPCP+7W"}}
{"0":{"lat":54.1845703125,"lon":-1.40625,"address":"5HMV+RF Thirsk, UK"}}
{"0":{"lat":53.2177734375,"lon":-1.0546875,"address":"6W9W+44 Newark, UK"}}
{"0":{"lat":52.5146484375,"lon":-1.5380859375,"address":"GF76+VQ Nuneaton, UK"}}
{"0":{"lat":54.4921875,"lon":-1.7578125,"address":"F6RR+VV Barnard Castle, UK"}}
{"0":{"lat":54.3603515625,"lon":-2.8564453125,"address":"Dales Way, Kendal LA8 9HS, UK"}}
{"0":{"lat":53.1298828125,"lon":-2.5927734375,"address":"4CH4+XV Tarporley, UK"}}
{"0":{"lat":51.85546875,"lon":-4.39453125,"address":"VJ44+55 Carmarthen, UK"}}
{"0":{"lat":52.119140625,"lon":-4.658203125,"address":"489R+MP Cardigan, UK"}}
{"0":{"lat":51.3720703125,"lon":-1.318359375,"address":"The Swan Inn, Newbury RG20 9BH, UK"}}
{"0":{"lat":52.5146484375,"lon":-3.8232421875,"address":"G57G+VP Machynlleth, UK"}}
{"0":{"lat":51.2841796875,"lon":-2.548828125,"address":"7FM2+MF Radstock, UK"}}
{"0":{"lat":51.328125,"lon":-1.494140625,"address":"8GH4+68 Andover, UK"}}
{"0":{"lat":52.6904296875,"lon":-1.9775390625,"address":"127 Wimblebury Rd, Heath Hayes, Cannock WS12 2EW, UK"}}
{"0":{"lat":50.7568359375,"lon":-2.021484375,"address":"QX4H+PC Broadstone, UK"}}
{"0":{"lat":54.4921875,"lon":-2.548828125,"address":"FFR2+VFF Penrith, UK"}}
{"0":{"lat":52.2509765625,"lon":-3.33984375,"address":"7M26+93 Llandrindod Wells, UK"}}
{"0":{"lat":52.822265625,"lon":-3.4716796875,"address":"RGCH+W8 Bala, UK"}}
{"0":{"lat":51.2841796875,"lon":-2.4609375,"address":"30 Larch Ct, Radstock BA3 3EU, UK"}}
{"0":{"lat":50.80078125,"lon":-1.5380859375,"address":"RF26+8Q Lymington, UK"}}
{"0":{"lat":51.5478515625,"lon":-1.4501953125,"address":"GGXX+4W Wantage, UK"}}
{"0":{"lat":53.525390625,"lon":-2.0654296875,"address":"GWGM+5R Oldham, UK"}}
{"0":{"lat":51.2841796875,"lon":0.3515625,"address":"79M2+MJ Sevenoaks, UK"}}
{"0":{"lat":53.7451171875,"lon":-0.5712890625,"address":"Elloughton Brantingham Road, Brough HU15 1LL, UK"}}
{"0":{"lat":54.6240234375,"lon":-1.8896484375,"address":"J4F6+J4 Barnard Castle, UK"}}
{"0":{"lat":52.822265625,"lon":-1.142578125,"address":"Loughborough Rd, Loughborough LE12 6XB, UK"}}
{"0":{"lat":53.701171875,"lon":-2.5927734375,"address":"PC24+FV Chorley, UK"}}
{"0":{"lat":52.3828125,"lon":-2.1533203125,"address":"9RMW+4M Kidderminster, UK"}}
{"0":{"lat":51.4599609375,"lon":0.0,"address":"10 Belmont Park Cl, Belmont Park, Blackheath, London SE13 5BH, UK"}}
{"0":{"lat":53.3935546875,"lon":-0.703125,"address":"97VW+CQ Gainsborough, UK"}}
{"0":{"lat":52.9541015625,"lon":-1.318359375,"address":"10 Dallimore Rd, Ilkeston DE7 4GZ, UK"}}
{"0":{"lat":51.85546875,"lon":-1.1865234375,"address":"VR47+59 Kidlington, UK"}}
{"0":{"lat":53.1298828125,"lon":-0.3076171875,"address":"4MHR+XX Woodhall Spa, UK"}}
{"0":{"lat":52.0751953125,"lon":-3.4716796875,"address":"3GGH+38 Brecon, UK"}}
{"0":{"lat":52.2509765625,"lon":-2.1533203125,"address":"62 Showell Grove, Droitwich WR9 8UD, UK"}}
{"0":{"lat":52.470703125,"lon":-2.900390625,"address":"F3CX+7R Craven Arms, UK"}}
{"0":{"lat":52.734375,"lon":-3.251953125,"address":"PPMX+P6 Meifod, UK"}}
{"0":{"lat":52.03125,"lon":-1.318359375,"address":"5 Russett St, Bodicote, Banbury OX15 4UE, UK"}}
{"0":{"lat":51.2841796875,"lon":0.1318359375,"address":"74MJ+MP Sevenoaks, UK"}}
{"0":{"lat":51.6357421875,"lon":0.0439453125,"address":"24 Fallow Fields, Loughton IG10 4QP, UK"}}
{"0":{"lat":52.4267578125,"lon":-1.93359375,"address":"2LP, Bournville Ln, Birmingham B30 1JR, UK"}}
{"0":{"lat":52.20703125,"lon":-4.4384765625,"address":"6H46+RJ Llandysul, UK"}}
{"0":{"lat":52.470703125,"lon":-1.40625,"address":"FHCV+7F Bedworth, UK"}}
{"0":{"lat":51.8115234375,"lon":0.703125,"address":"RP63+J6 Witham, UK"}}
{"0":{"lat":52.9541015625,"lon":-1.23046875,"address":"7 Moorsholm Dr, Nottingham NG8 2EF, UK"}}
{"0":{"lat":51.9873046875,"lon":-3.076171875,"address":"XWPF+WG Abergavenny, UK"}}
{"0":{"lat":52.294921875,"lon":-1.7578125,"address":"76VR+XV Henley-in-Arden, UK"}}
{"0":{"lat":53.876953125,"lon":-1.5380859375,"address":"VFG6+QQ Leeds, UK"}}
{"0":{"lat":51.7236328125,"lon":-3.9111328125,"address":"P3FQ+FG Craig-cefn-parc, Swansea, UK"}}
{"0":{"lat":52.470703125,"lon":-1.8896484375,"address":"151 Charles Henry St, Deritend, Birmingham B12 0SJ, UK"}}
{"0":{"lat":52.03125,"lon":-4.1748046875,"address":"2RJG+G3 Pencader, UK"}}
{"0":{"lat":52.9541015625,"lon":-1.8017578125,"address":"X53X+J7 Ashbourne, UK"}}
{"0":{"lat":52.6025390625,"lon":0.17578125,"address":"J53G+28 Wisbech, UK"}}
{"0":{"lat":52.646484375,"lon":-1.0986328125,"address":"3 Portishead Rd, Leicester LE5 0JL, UK"}}
{"0":{"lat":51.767578125,"lon":-3.5595703125,"address":"QC9R+25 Neath, UK"}}
{"0":{"lat":53.3056640625,"lon":-1.58203125,"address":"8C49+75 Hope Valley, UK"}}
{"0":{"lat":53.0419921875,"lon":-3.1201171875,"address":"2VRH+QX Llangollen, UK"}}
{"0":{"lat":52.734375,"lon":-0.703125,"address":"P7MW+PQ Oakham, UK"}}
{"0":{"lat":51.8994140625,"lon":-3.427734375,"address":"VHXC+QW Brecon, UK"}}
{"0":{"lat":54.3603515625,"lon":-1.23046875,"address":"9Q69+4R Northallerton, UK"}}
{"0":{"lat":54.66796875,"lon":-2.4169921875,"address":"MH9M+56 Appleby-in-Westmorland, UK"}}
{"0":{"lat":51.943359375,"lon":-0.615234375,"address":"W9VM+8W Leighton Buzzard, UK"}}
{"0":{"lat":52.119140625,"lon":-1.669921875,"address":"489J+M2 Stratford-upon-Avon, UK"}}
{"0":{"lat":52.4267578125,"lon":1.40625,"address":"CCG4+PF Bungay, UK"}}
{"0":{"lat":51.7236328125,"lon":-2.900390625,"address":"P3FX+FR Usk, UK"}}
{"0":{"lat":52.03125,"lon":-3.69140625,"address":"28J5+GC Llandovery, UK"}}
{"0":{"lat":54.7998046875,"lon":-3.2958984375,"address":"QPX3+WJ Wigton, UK"}}
{"0":{"lat":51.5478515625,"lon":-2.2412109375,"address":"GQX5+4G Chippenham, UK"}}
{"0":{"lat":53.3935546875,"lon":-2.4169921875,"address":"Ivy Barn, Barns Ln, Warburton, Dunham Massey, Lymm WA13 9UG, UK"}}
{"0":{"lat":54.4921875,"lon":-2.197265625,"address":"FRR3+V3H Kirkby Stephen, UK"}}
{"0":{"lat":51.8994140625,"lon":-3.6474609375,"address":"V9X3+Q2 Brecon, UK"}}
{"0":{"lat":52.3828125,"lon":-0.791015625,"address":"96M5+4HH Kettering, UK"}}
{"0":{"lat":54.66796875,"lon":-1.8017578125,"address":"M59X+57 Hamsterley, Bishop Auckland, UK"}}
{"0":{"lat":50.4931640625,"lon":-3.955078125,"address":"F2VV+7X Yelverton, UK"}}
{"0":{"lat":50.888671875,"lon":-0.439453125,"address":"VHQ6+F6 Worthing, UK"}}
{"0":{"lat":54.1845703125,"lon":-1.494140625,"address":"Station Depot, Ripon HG4 5EX, UK"}}
{"0":{"lat":53.1298828125,"lon":-3.2080078125,"address":"4QHR+XQ Mold, UK"}}
{"0":{"lat":51.6357421875,"lon":-2.109375,"address":"JVPR+76 Tetbury, UK"}}
{"0":{"lat":54.580078125,"lon":-1.5380859375,"address":"HFJ6+2Q Darlington, UK"}}
{"0":{"lat":52.5146484375,"lon":-2.8564453125,"address":"G47V+VC Church Stretton, UK"}}
{"0":{"lat":53.0419921875,"lon":-1.2744140625,"address":"2PRG+Q6 Nottingham, UK"}}
{"0":{"lat":53.4375,"lon":-0.703125,"address":"C7PW+XQ Gainsborough, UK"}}
{"0":{"lat":51.3720703125,"lon":-1.5380859375,"address":"Iverwood House, Cutting Hill, Hungerford RG17 0RN, UK"}}
{"0":{"lat":53.3935546875,"lon":-0.4833984375,"address":"9GV8+CJ Market Rasen, UK"}}
{"0":{"lat":51.15234375,"lon":-0.87890625,"address":"542C+WC Bordon, UK"}}
{"0":{"lat":52.294921875,"lon":-3.3837890625,"address":"7JV8+XF Llandrindod Wells, UK"}}
{"0":{"lat":54.1845703125,"lon":-2.7685546875,"address":"56MJ+RH Milnthorpe, UK"}}
{"0":{"lat":51.9873046875,"lon":-3.6474609375,"address":"X9P3+W2 Brecon, UK"}}
{"0":{"lat":52.822265625,"lon":-2.98828125,"address":"42 Lady Hill, West Felton, Oswestry SY11 4JZ, UK"}}
{"0":{"lat":51.943359375,"lon":0.9228515625,"address":"WWVF+84 Colchester, UK"}}
{"0":{"lat":50.9326171875,"lon":-3.251953125,"address":"WPMX+26 Cullompton, UK"}}
{"0":{"lat":52.3388671875,"lon":-1.0986328125,"address":"8WQ2+GG Northampton, UK"}}
{"0":{"lat":50.9765625,"lon":-4.1748046875,"address":"1 Tavern Gardens, Weare Giffard, Bideford EX39 4QR, UK"}}
{"0":{"lat":51.5478515625,"lon":-1.40625,"address":"GHXV+4F Wantage, UK"}}
{"0":{"lat":52.6025390625,"lon":-1.9775390625,"address":"35 New Forest Rd, Walsall WS3 1TR, UK"}}
{"0":{"lat":51.767578125,"lon":-0.3076171875,"address":"20 Skys Wood Rd, St Albans AL4 9PG, UK"}}
{"0":{"lat":54.5361328125,"lon":-1.0107421875,"address":"GXPQ+FP Saltburn-by-the-Sea, UK"}}
{"0":{"lat":53.173828125,"lon":-1.0986328125,"address":"4 Waterworks Dr, Clipstone, Mansfield NG21 9BL, UK"}}
{"0":{"lat":53.6572265625,"lon":-1.4501953125,"address":"MG4X+VW Wakefield, UK"}}
{"0":{"lat":54.2724609375,"lon":-0.9228515625,"address":"73CG+XV Kirkbymoorside, York, UK"}}
{"0":{"lat":51.240234375,"lon":-2.5927734375,"address":"6CR4+3V Wells, UK"}}
{"0":{"lat":51.1083984375,"lon":-0.7470703125,"address":"MORLANCOURT, Boundary Rd, Grayshott, Hindhead GU26 6TX, UK"}}
{"0":{"lat":51.8115234375,"lon":-2.900390625,"address":"R36X+JR Usk, UK"}}
{"0":{"lat":50.9765625,"lon":-1.40625,"address":"11 York Cl, Chandler's Ford, Eastleigh SO53 4LF, UK"}}
{"0":{"lat":52.470703125,"lon":-0.9228515625,"address":"138 Bath St, Market Harborough LE16 9JL, UK"}}
{"0":{"lat":51.8115234375,"lon":0.3955078125,"address":"R96W+J6 Chelmsford, UK"}}
{"0":{"lat":50.9765625,"lon":-2.197265625,"address":"XRG3+J3H Shaftesbury, UK"}}
{"0":{"lat":52.7783203125,"lon":-1.4501953125,"address":"QGHX+8W Ashby-de-la-Zouch, UK"}}
{"0":{"lat":52.55859375,"lon":-0.8349609375,"address":"12 Hare Pie View, Hallaton, Market Harborough LE16 8UL, UK"}}
{"0":{"lat":52.3828125,"lon":-2.724609375,"address":"97MG+45C Ludlow, UK"}}
{"0":{"lat":51.9873046875,"lon":-0.615234375,"address":"X9PM+WW Milton Keynes, UK"}}
{"0":{"lat":53.4814453125,"lon":-2.373046875,"address":"81 Schofield Rd, Eccles, Manchester M30 7LX, UK"}}
{"0":{"lat":52.5146484375,"lon":-2.900390625,"address":"G37X+VR Lydbury North, UK"}}
{"0":{"lat":50.5810546875,"lon":-3.515625,"address":"HFJM+CP Dawlish, UK"}}
{"0":{"lat":52.294921875,"lon":-0.8349609375,"address":"75V8+X2 Northampton, UK"}}
{"0":{"lat":52.470703125,"lon":1.1865234375,"address":"6 St Michaels Green, Great Moulton, Norwich NR15 2LD, UK"}}
{"0":{"lat":50.9765625,"lon":-2.3291015625,"address":"14 Ham Meadows, Marnhull, Sturminster Newton DT10 1LR, UK"}}
{"0":{"lat":51.943359375,"lon":-3.955078125,"address":"W2VV+8X Llandeilo, UK"}}
{"0":{"lat":54.4482421875,"lon":-1.3623046875,"address":"CJXQ+73 Yarm, UK"}}
{"0":{"lat":52.119140625,"lon":-0.3515625,"address":"4J9X+M9 Bedford, UK"}}
{"0":{"lat":51.50390625,"lon":-1.142578125,"address":"GV34+HX Reading, UK"}}
{"0":{"lat":53.3935546875,"lon":-2.8564453125,"address":"3 Iris Close, Liverpool L27 1AE, UK"}}
{"0":{"lat":54.404296875,"lon":-0.87890625,"address":"C43C+PC Whitby, UK"}}
{"0":{"lat":52.6904296875,"lon":-0.263671875,"address":"MPRP+5G Spalding, UK"}}
{"0":{"lat":51.85546875,"lon":-2.63671875,"address":"V947+58 Ross-on-Wye, UK"}}
{"0":{"lat":51.6796875,"lon":-3.0322265625,"address":"54 Sycamore Rd S, Griffithstown, Pontypool NP4 5AN, UK"}}
{"0":{"lat":50.6689453125,"lon":-3.251953125,"address":"MP9X+H6 Sidmouth, UK"}}
{"0":{"lat":50.8447265625,"lon":-3.6474609375,"address":"R9V3+V2 Crediton, UK"}}
{"0":{"lat":51.0205078125,"lon":0.7470703125,"address":"2PCW+6R Tenterden, UK"}}
{"0":{"lat":52.7783203125,"lon":-0.1318359375,"address":"QVH9+87 Spalding, UK"}}
{"0":{"lat":52.9541015625,"lon":-2.4609375,"address":"XG3Q+JJ Market Drayton, UK"}}
{"0":{"lat":50.9765625,"lon":-3.251953125,"address":"12 Orchard Cl, Lower Westford, Wellington TA21 0DR, UK"}}
{"0":{"lat":54.052734375,"lon":-2.900390625,"address":"333X+3R Morecambe, UK"}}
{"0":{"lat":52.1630859375,"lon":-4.21875,"address":"5Q7J+6G Lampeter, UK"}}
{"0":{"lat":52.294921875,"lon":-1.23046875,"address":"7QV9+XR Rugby, UK"}}
{"0":{"lat":52.6904296875,"lon":-0.439453125,"address":"MHR6+56 Stamford, UK"}}
{"0":{"lat":52.1630859375,"lon":-3.8671875,"address":"547M+64 Tregaron, UK"}}
{"0":{"lat":51.1962890625,"lon":0.263671875,"address":"57W7+GF Tonbridge, UK"}}
{"0":{"lat":51.767578125,"lon":-2.0654296875,"address":"QW9M+2R Cirencester, UK"}}
{"0":{"lat":52.734375,"lon":-4.7021484375,"address":"P7MX+P4 Pwllheli, UK"}}
{"0":{"lat":51.5478515625,"lon":-2.021484375,"address":"GXXH+4C Chippenham, UK"}}
{"0":{"lat":51.240234375,"lon":0.5712890625,"address":"1 Batten Walk, Maidstone ME17 3AA, UK"}}
{"0":{"lat":50.9765625,"lon":-1.58203125,"address":"Landfall, Groves Down, West Wellow, Romsey SO51 6DZ, UK"}}
{"0":{"lat":53.2177734375,"lon":-1.58203125,"address":"6C99+45 Bakewell, UK"}}
{"0":{"lat":53.4375,"lon":-0.615234375,"address":"C9PM+XW Gainsborough, UK"}}
{"0":{"lat":51.5478515625,"lon":-0.966796875,"address":"G2XM+47 Henley-on-Thames, UK"}}
{"0":{"lat":51.328125,"lon":-1.93359375,"address":"83H8+6H Devizes, UK"}}
{"0":{"lat":50.8447265625,"lon":-1.494140625,"address":"RGV4+V8 Brockenhurst, UK"}}
{"0":{"lat":52.20703125,"lon":-3.6474609375,"address":"6943+R2 Rhayader, UK"}}
{"0":{"lat":51.1083984375,"lon":-3.8671875,"address":"445M+94 Barnstaple, UK"}}
{"0":{"lat":51.591796875,"lon":-3.33984375,"address":"HMR6+P3 Pontypridd, UK"}}
{"0":{"lat":54.6240234375,"lon":-3.251953125,"address":"JPFX+J6 Cockermouth, UK"}}
{"0":{"lat":51.1962890625,"lon":0.6591796875,"address":"5MW5+GM Maidstone, UK"}}
{"0":{"lat":53.7451171875,"lon":-0.1318359375,"address":"PVW9+27 Hull, UK"}}
{"0":{"lat":52.8662109375,"lon":-0.6591796875,"address":"V88R+F8 Grantham, UK"}}
{"0":{"lat":52.470703125,"lon":-2.2412109375,"address":"Lady Dorothys Cottage, Cote Ln, Enville, Stourbridge DY7 5HJ, UK"}}
{"0":{"lat":52.646484375,"lon":-2.4169921875,"address":"JHWM+H6 Shifnal, UK"}}
{"0":{"lat":51.2841796875,"lon":-1.7578125,"address":"76MR+MV Pewsey, UK"}}
{"0":{"lat":52.294921875,"lon":-3.0322265625,"address":"7XV9+X4 Presteigne, UK"}}
{"0":{"lat":50.8447265625,"lon":-3.2080078125,"address":"RQVR+VQ Honiton, UK"}}
{"0":{"lat":53.1298828125,"lon":-2.4169921875,"address":"4HHM+X6 Sandbach, UK"}}
{"0":{"lat":51.1083984375,"lon":-1.494140625,"address":"4G54+98 Stockbridge, UK"}}
{"0":{"lat":53.8330078125,"lon":-1.318359375,"address":"RMMJ+6M Leeds, UK"}}
{"0":{"lat":52.1630859375,"lon":-3.3837890625,"address":"5J78+6F Builth Wells, UK"}}
{"0":{"lat":53.3056640625,"lon":-0.17578125,"address":"8R4F+7M Market Rasen, UK"}}
{"0":{"lat":52.822265625,"lon":-0.791015625,"address":"R6C5+WH Melton Mowbray, UK"}}
{"0":{"lat":54.2724609375,"lon":-3.0322265625,"address":"7XC9+X4 Ulverston, UK"}}
{"0":{"lat":52.294921875,"lon":-2.8125,"address":"75VP+XX Leominster, UK"}}
{"0":{"lat":54.228515625,"lon":-1.1865234375,"address":"6RH7+C9 Thirsk, UK"}}
{"0":{"lat":53.3935546875,"lon":0.0439453125,"address":"92VV+CH Louth, UK"}}
{"0":{"lat":53.4814453125,"lon":-2.548828125,"address":"FFJ2+HF Warrington, UK"}}
{"0":{"lat":51.591796875,"lon":-1.7138671875,"address":"H7RP+PF Swindon, UK"}}
{"0":{"lat":54.228515625,"lon":-3.0322265625,"address":"6XH9+C4 Ulverston, UK"}}
{"0":{"lat":53.349609375,"lon":-2.109375,"address":"9 Blenheim Cl, Poynton, Stockport SK12 1DN, UK"}}
{"0":{"lat":51.4599609375,"lon":-0.3955078125,"address":"Green Lane, Feltham, UK"}}
{"0":{"lat":51.3720703125,"lon":-0.87890625,"address":"94CC+RC Wokingham, UK"}}
{"0":{"lat":52.5146484375,"lon":-1.9775390625,"address":"2 Europa Ave, West Bromwich B70 6TJ, UK"}}
{"0":{"lat":52.294921875,"lon":-2.28515625,"address":"7PV7+XW Worcester, UK"}}
{"0":{"lat":52.0751953125,"lon":-1.318359375,"address":"2 Acorn Way, Banbury OX16 3AB, UK"}}
{"0":{"lat":54.0087890625,"lon":-2.5927734375,"address":"2C54+GV Lancaster, UK"}}
{"0":{"lat":51.8994140625,"lon":-0.87890625,"address":"24 Quainton Rd, North Marston, Buckingham MK18 3PR, UK"}}
{"0":{"lat":53.876953125,"lon":-1.494140625,"address":"Willow Cottage, Fortshot Ln, Wike, Leeds LS17 9JX, UK"}}
{"0":{"lat":51.50390625,"lon":-3.603515625,"address":"9 Esgair-Y-Llys, Bridgend CF31 5BN, UK"}}
{"0":{"lat":52.03125,"lon":-3.9990234375,"address":"22J2+G9 Llanwrda, UK"}}
{"0":{"lat":52.91015625,"lon":-1.669921875,"address":"W86J+32 Derby, UK"}}
{"0":{"lat":53.173828125,"lon":-1.0546875,"address":"5WFW+G4 Mansfield, UK"}}
{"0":{"lat":52.0751953125,"lon":0.2197265625,"address":"36G9+3V Saffron Walden, UK"}}
{"0":{"lat":52.03125,"lon":1.0986328125,"address":"23JX+GF Ipswich, UK"}}
{"0":{"lat":54.2724609375,"lon":-2.98828125,"address":"72C6+XM Ulverston, UK"}}
{"0":{"lat":51.15234375,"lon":-4.130859375,"address":"5V29+WM Ilfracombe, UK"}}
{"0":{"lat":52.03125,"lon":-1.1865234375,"address":"2RJ7+G9 Brackley, UK"}}
{"0":{"lat":51.6357421875,"lon":0.3515625,"address":"51 Coram Grn, Hutton, Brentwood CM13 1LW, UK"}}
{"0":{"lat":51.9873046875,"lon":-3.69140625,"address":"X8P5+WC Llandovery, UK"}}
{"0":{"lat":52.0751953125,"lon":-2.98828125,"address":"32G6+3M Dorstone, Hereford, UK"}}
{"0":{"lat":53.525390625,"lon":-0.7470703125,"address":"G7G3+55 Scunthorpe, UK"}}
{"0":{"lat":51.1962890625,"lon":-0.4833984375,"address":"Lockhurst Corner, Shophouse Ln, Albury, Guildford GU5 9EG, UK"}}
{"0":{"lat":50.9326171875,"lon":-2.4169921875,"address":"WHMM+26 Sturminster Newton, UK"}}
{"0":{"lat":53.7451171875,"lon":-0.7470703125,"address":"P7W3+25 Brough, UK"}}
{"0":{"lat":53.3935546875,"lon":-0.3955078125,"address":"9JV3+CQ Market Rasen, UK"}}
{"0":{"lat":51.5478515625,"lon":0.0,"address":"4 St Paul's Dr, London E15 1JN, UK"}}
{"0":{"lat":51.8994140625,"lon":-2.4609375,"address":"VGXQ+QJ Longhope, UK"}}
{"0":{"lat":50.7568359375,"lon":-4.39453125,"address":"QJ44+P5 Holsworthy, UK"}}
{"0":{"lat":51.416015625,"lon":0.3955078125,"address":"78 Vigilant Way, Gravesend DA12 4PN, UK"}}
{"0":{"lat":51.240234375,"lon":0.0439453125,"address":"62RV+3H Oxted, UK"}}
{"0":{"lat":52.03125,"lon":-2.98828125,"address":"22J6+GM Urishay, Hereford, UK"}}
{"0":{"lat":50.9326171875,"lon":-1.318359375,"address":"121 Moorgreen Rd, Southampton SO30 2HG, UK"}}
{"0":{"lat":50.9765625,"lon":-1.318359375,"address":"XMGJ+JMC Eastleigh, UK"}}
{"0":{"lat":51.8115234375,"lon":-3.603515625,"address":"R96W+JH Aberdare, UK"}}
{"0":{"lat":50.7568359375,"lon":-4.21875,"address":"QQ4J+PG Beaworthy, UK"}}
{"0":{"lat":51.0205078125,"lon":-3.779296875,"address":"26CC+67 South Molton, UK"}}
{"0":{"lat":53.349609375,"lon":-3.076171875,"address":"22 Holmwood Ave, Barnston, Wirral CH61 1AX, UK"}}
{"0":{"lat":52.646484375,"lon":-1.669921875,"address":"J8WJ+H2 Tamworth, UK"}}
{"0":{"lat":50.7568359375,"lon":-1.93359375,"address":"21 Saffron Way, Bournemouth BH11 8TJ, UK"}}
{"0":{"lat":53.6572265625,"lon":-0.9228515625,"address":"M34G+VV Goole, UK"}}
{"0":{"lat":52.5146484375,"lon":-0.087890625,"address":"GW76+VR Peterborough, UK"}}
{"0":{"lat":53.4814453125,"lon":-1.8896484375,"address":"F4J6+H4 Glossop, UK"}}
{"0":{"lat":54.0087890625,"lon":-1.1865234375,"address":"2R57+G9 Beningbrough, York, UK"}}
{"0":{"lat":54.7119140625,"lon":-2.4169921875,"address":"PH6M+Q6 Alston, UK"}}
{"0":{"lat":52.6904296875,"lon":-2.109375,"address":"MVRR+56 Stafford, UK"}}
{"0":{"lat":51.1083984375,"lon":-0.3515625,"address":"Merry Maids, Marches Buildings, Marches Rd, Horsham RH12 3SL, UK"}}
{"0":{"lat":52.6025390625,"lon":-1.58203125,"address":"JC39+25 Atherstone, UK"}}
{"0":{"lat":52.2509765625,"lon":-4.4384765625,"address":"7H26+9J Llandysul, UK"}}
{"0":{"lat":52.646484375,"lon":-2.197265625,"address":"JRW3+H3 Wolverhampton, UK"}}
{"0":{"lat":52.2509765625,"lon":-0.3955078125,"address":"7J23+9Q Bedford, UK"}}
{"0":{"lat":51.85546875,"lon":-4.04296875,"address":"VX44+5R Carmarthen, UK"}}
{"0":{"lat":53.4814453125,"lon":-2.4609375,"address":"FGJQ+HJ Manchester, UK"}}
{"0":{"lat":53.1298828125,"lon":-1.4501953125,"address":"4GHX+XW Alfreton, UK"}}
{"0":{"lat":52.9541015625,"lon":-1.40625,"address":"XH3V+JF Ilkeston, UK"}}
{"0":{"lat":50.7568359375,"lon":-3.4716796875,"address":"2 Home Farm Cottages, Poltimore, Exeter EX4 0AY, UK"}}
{"0":{"lat":52.7783203125,"lon":1.3623046875,"address":"Clay Cottage, 38 Swanton Abbott Rd, Westwick, Norwich NR10 5DN, UK"}}
{"0":{"lat":51.767578125,"lon":-4.21875,"address":"QQ9J+2G Llanelli, UK"}}
{"0":{"lat":52.55859375,"lon":-2.98828125,"address":"H256+CM Shrewsbury, UK"}}
{"0":{"lat":51.2841796875,"lon":-1.6259765625,"address":"79MF+MJ Marlborough, UK"}}
{"0":{"lat":51.3720703125,"lon":-1.142578125,"address":"9VC4+RX Reading, UK"}}
{"0":{"lat":54.0087890625,"lon":-2.724609375,"address":"275G+G5 Lancaster, UK"}}
{"0":{"lat":54.580078125,"lon":-2.9443359375,"address":"H3J4+27 Penrith, UK"}}
{"0":{"lat":50.9765625,"lon":-2.7685546875,"address":"27 Limbury, Martock TA12 6DX, UK"}}
{"0":{"lat":52.734375,"lon":-2.9443359375,"address":"P3M4+P7 Shrewsbury, UK"}}
{"0":{"lat":52.7783203125,"lon":-1.93359375,"address":"Q3H8+8H Rugeley, UK"}}
{"0":{"lat":51.9873046875,"lon":0.3515625,"address":"X9P2+WJ Saffron Walden, UK"}}
{"0":{"lat":52.6025390625,"lon":-1.8017578125,"address":"J53X+27 Sutton Coldfield, UK"}}
{"0":{"lat":51.767578125,"lon":-2.5927734375,"address":"QC94+2V Coleford, UK"}}
{"0":{"lat":53.0859375,"lon":-0.2197265625,"address":"3QPJ+94 Tattershall, Lincoln, UK"}}
{"0":{"lat":51.7236328125,"lon":0.0,"address":"P2F2+F2 Waltham Abbey, UK"}}
{"0":{"lat":52.91015625,"lon":-2.5927734375,"address":"WC64+3V Whitchurch, UK"}}
{"0":{"lat":53.1298828125,"lon":-0.087890625,"address":"4WH6+XR Boston, UK"}}
{"0":{"lat":54.66796875,"lon":-3.076171875,"address":"MW9F+5G Keswick, UK"}}
{"0":{"lat":54.31640625,"lon":-2.4169921875,"address":"8H8M+H6 Sedbergh, UK"}}
{"0":{"lat":52.03125,"lon":-4.21875,"address":"2QJJ+GG Pencader, UK"}}
{"0":{"lat":52.734375,"lon":-2.8125,"address":"P5MP+PX Shrewsbury, UK"}}
{"0":{"lat":51.50390625,"lon":-2.28515625,"address":"GP37+HW Chippenham, UK"}}
{"0":{"lat":53.525390625,"lon":-1.0546875,"address":"GWGW+54 Doncaster, UK"}}
{"0":{"lat":50.9326171875,"lon":-3.2958984375,"address":"WPM3+2J Cullompton, UK"}}
{"0":{"lat":54.4482421875,"lon":-2.8125,"address":"C5XP+7X Kendal, UK"}}
{"0":{"lat":50.9326171875,"lon":0.3515625,"address":"W9M2+2J Heathfield, UK"}}
{"0":{"lat":54.580078125,"lon":-2.8125,"address":"H5JP+2X Penrith, UK"}}
{"0":{"lat":54.2724609375,"lon":-2.7685546875,"address":"Heaves Hotel, Kendal LA8 8EB, UK"}}
{"0":{"lat":52.5146484375,"lon":-4.130859375,"address":"GV79+VM Tywyn, UK"}}
{"0":{"lat":51.943359375,"lon":0.3515625,"address":"W9V2+8J Dunmow, UK"}}
{"0":{"lat":53.1298828125,"lon":-1.8017578125,"address":"45HX+X7 Buxton, UK"}}
{"0":{"lat":52.6025390625,"lon":-1.40625,"address":"The Old Vicarage, Ambion Ln, Sutton Cheney, Nuneaton CV13 0AD, UK"}}
{"0":{"lat":54.228515625,"lon":-2.3291015625,"address":"6MHC+C9 Carnforth, UK"}}
{"0":{"lat":52.646484375,"lon":-4.3505859375,"address":"9C4QJJWX+HQ"}}
{"0":{"lat":51.9873046875,"lon":-5.185546875,"address":"XRP7+WQ Haverfordwest, UK"}}
{"0":{"lat":52.734375,"lon":-3.33984375,"address":"PMM6+P3 Llanfyllin, UK"}}
{"0":{"lat":52.294921875,"lon":-0.9228515625,"address":"73VG+XV Northampton, UK"}}
{"0":{"lat":51.5478515625,"lon":-0.7470703125,"address":"G7X3+45 Maidenhead, UK"}}
{"0":{"lat":53.2177734375,"lon":-0.6591796875,"address":"689R+48 Newark, UK"}}
{"0":{"lat":53.876953125,"lon":-2.5048828125,"address":"VFGW+Q2 Clitheroe, UK"}}
{"0":{"lat":50.9765625,"lon":-0.87890625,"address":"11 W Harting Rd, Petersfield GU31 5NS, UK"}}
{"0":{"lat":52.6025390625,"lon":-1.7578125,"address":"J63R+2V Tamworth, UK"}}
{"0":{"lat":54.2724609375,"lon":-2.109375,"address":"7VCR+X6 Leyburn, UK"}}
{"0":{"lat":51.416015625,"lon":-0.966796875,"address":"258 Whitley Wood Rd, Reading RG2 8TL, UK"}}
{"0":{"lat":51.6357421875,"lon":-3.0322265625,"address":"JXP9+74 Cwmbran, UK"}}
{"0":{"lat":52.6025390625,"lon":-2.3291015625,"address":"JM3C+29 Wolverhampton, UK"}}
{"0":{"lat":51.064453125,"lon":-3.251953125,"address":"3P7X+Q6 Taunton, UK"}}
{"0":{"lat":52.6904296875,"lon":1.5380859375,"address":"MGRQ+56 Great Yarmouth, UK"}}
{"0":{"lat":51.1962890625,"lon":0.87890625,"address":"5VWH+GH Ashford, UK"}}
{"0":{"lat":52.03125,"lon":-2.197265625,"address":"2RJ3+G3 Worcester, UK"}}
{"0":{"lat":50.888671875,"lon":-0.3076171875,"address":"VMQR+FX Steyning, UK"}}
{"0":{"lat":51.240234375,"lon":-0.3076171875,"address":"Foxbury Lodge, Old Reigate Rd, Brockham, Dorking RH4 1NU, UK"}}
{"0":{"lat":51.0205078125,"lon":-1.845703125,"address":"25C3+6P Salisbury, UK"}}
{"0":{"lat":53.61328125,"lon":-0.8349609375,"address":"38 The Slack, Crowle, Scunthorpe DN17 4LZ, UK"}}
{"0":{"lat":52.0751953125,"lon":-1.8896484375,"address":"34G6+34 Evesham, UK"}}
{"0":{"lat":52.2509765625,"lon":-0.52734375,"address":"The Cottage, Bedford MK44 1AA, UK"}}
{"0":{"lat":52.119140625,"lon":-2.6806640625,"address":"4899+MP Sutton Lakes, Hereford, UK"}}
{"0":{"lat":51.0205078125,"lon":-1.142578125,"address":"2VC4+6X Southampton, UK"}}
{"0":{"lat":54.31640625,"lon":-1.0986328125,"address":"8W82+HG Middlesbrough, UK"}}
{"0":{"lat":51.4599609375,"lon":-0.1318359375,"address":"29 Britannia Cl, London SW4 7NN, UK"}}
{"0":{"lat":52.6025390625,"lon":-1.142578125,"address":"30 Saffron Way, Leicester LE2 8QL, UK"}}
{"0":{"lat":53.525390625,"lon":-2.28515625,"address":"96 Butterstile Ln, Prestwich, Manchester M25 9PP, UK"}}
{"0":{"lat":52.20703125,"lon":-4.74609375,"address":"6743+RH Cardigan, UK"}}
{"0":{"lat":53.6572265625,"lon":-2.7685546875,"address":"The Coach House, Grape Ln, Croston, Leyland PR26 9HB, UK"}}
{"0":{"lat":51.1083984375,"lon":-0.703125,"address":"475W+9Q Haslemere, UK"}}
{"0":{"lat":51.1083984375,"lon":-3.5595703125,"address":"4C5R+95 Minehead, UK"}}
{"0":{"lat":50.7568359375,"lon":-3.2958984375,"address":"1 Newton Cottages, Cadhay, Ottery Saint Mary EX11 1QY, UK"}}
{"0":{"lat":52.119140625,"lon":1.0986328125,"address":"4 Lower Cres, Barham, Ipswich IP6 0PF, UK"}}
{"0":{"lat":51.591796875,"lon":0.087890625,"address":"26 Virginia Gardens, Ilford IG6 1PT, UK"}}
{"0":{"lat":51.50390625,"lon":0.1318359375,"address":"A2016 SE2 9AR, UK"}}
{"0":{"lat":54.2724609375,"lon":-2.548828125,"address":"7FC2+XF Carnforth, UK"}}
{"0":{"lat":52.8662109375,"lon":-4.04296875,"address":"VX84+FR Harlech, UK"}}
{"0":{"lat":52.0751953125,"lon":-1.669921875,"address":"38GJ+32 Shipston-on-Stour, UK"}}
{"0":{"lat":52.2509765625,"lon":-4.7900390625,"address":"9C4Q7625+9X"}}
{"0":{"lat":53.349609375,"lon":-1.8896484375,"address":"84X6+R4 High Peak, UK"}}
{"0":{"lat":52.5146484375,"lon":0.0439453125,"address":"G27V+VH March, UK"}}
{"0":{"lat":51.240234375,"lon":-0.1318359375,"address":"Park Works Cottages, High St, Nutfield, Redhill RH1 4HG, UK"}}
{"0":{"lat":51.328125,"lon":-1.669921875,"address":"88HJ+62 Marlborough, UK"}}
{"0":{"lat":51.1083984375,"lon":-2.5048828125,"address":"4F5W+92 Castle Cary, UK"}}
{"0":{"lat":52.734375,"lon":-2.4609375,"address":"PGMQ+PJ Telford, UK"}}
{"0":{"lat":52.20703125,"lon":-4.7021484375,"address":"674X+R4 Cardigan, UK"}}
{"0":{"lat":52.3388671875,"lon":-3.427734375,"address":"8HQC+GW Llandrindod Wells, UK"}}
{"0":{"lat":52.734375,"lon":-0.087890625,"address":"PWM6+PR Spalding, UK"}}
{"0":{"lat":52.1630859375,"lon":-0.1318359375,"address":"5V79+67 Sandy, UK"}}
{"0":{"lat":52.3828125,"lon":-3.603515625,"address":"99MW+4HH Llanidloes, UK"}}
{"0":{"lat":50.7568359375,"lon":-4.1748046875,"address":"QR4G+P3 Beaworthy, UK"}}
{"0":{"lat":52.4267578125,"lon":-0.8349609375,"address":"C5G8+P2 Kettering, UK"}}
{"0":{"lat":52.0751953125,"lon":-3.0322265625,"address":"3XG9+34 The Bage, Hereford, UK"}}
{"0":{"lat":52.6904296875,"lon":-1.4501953125,"address":"MGRX+5W Coalville, UK"}}
{"0":{"lat":53.2177734375,"lon":-2.724609375,"address":"679G+45 Chester, UK"}}
{"0":{"lat":53.525390625,"lon":-1.23046875,"address":"GQG9+5R Doncaster, UK"}}
{"0":{"lat":52.470703125,"lon":0.7470703125,"address":"FPCW+7R Thetford, UK"}}
{"0":{"lat":51.8994140625,"lon":-5.0537109375,"address":"VWXW+QG Haverfordwest, UK"}}
{"0":{"lat":53.0859375,"lon":-0.4833984375,"address":"3GP8+9J Thompson's Bottom, Lincoln, UK"}}
{"0":{"lat":54.404296875,"lon":-3.0322265625,"address":"CX39+P4 Coniston, UK"}}
{"0":{"lat":53.8330078125,"lon":-0.966796875,"address":"R2MM+67 Selby, UK"}}
{"0":{"lat":50.9765625,"lon":0.0439453125,"address":"X2GV+JH Uckfield, UK"}}
{"0":{"lat":52.0751953125,"lon":-2.373046875,"address":"3JGG+3Q Malvern, UK"}}
{"0":{"lat":51.9873046875,"lon":-2.4169921875,"address":"XHPM+W6 Dymock, UK"}}
{"0":{"lat":51.1962890625,"lon":-2.3291015625,"address":"5MWC+G9 Frome, UK"}}
{"0":{"lat":52.2509765625,"lon":-0.1318359375,"address":"7V29+97 Cambridge, UK"}}
{"0":{"lat":53.0419921875,"lon":-2.5927734375,"address":"2CR4+QV Nantwich, UK"}}
{"0":{"lat":54.404296875,"lon":-2.6806640625,"address":"C839+PP Kendal, UK"}}
{"0":{"lat":52.8662109375,"lon":-1.7138671875,"address":"V78P+FF Derby, UK"}}
{"0":{"lat":51.15234375,"lon":-1.40625,"address":"5H2V+WF Stockbridge, UK"}}
{"0":{"lat":52.20703125,"lon":1.0986328125,"address":"634X+RF Stowmarket, UK"}}
{"0":{"lat":52.1630859375,"lon":-4.2626953125,"address":"5P7P+6W Lampeter, UK"}}
{"0":{"lat":52.55859375,"lon":0.5712890625,"address":"HH5C+CG Thetford, UK"}}
{"0":{"lat":53.701171875,"lon":-1.40625,"address":"18 Shaw Ave, Normanton WF6 2TT, UK"}}
{"0":{"lat":54.4921875,"lon":-2.900390625,"address":"F3RX+VRH Penrith, UK"}}
{"0":{"lat":50.9326171875,"lon":-1.845703125,"address":"W5M3+2P Fordingbridge, UK"}}
{"0":{"lat":52.646484375,"lon":-3.515625,"address":"JFWM+HP Welshpool, UK"}}
{"0":{"lat":52.55859375,"lon":1.1865234375,"address":"H55P+CJ Wymondham, UK"}}
{"0":{"lat":50.9326171875,"lon":-1.0107421875,"address":"8 Downhouse Rd, Waterlooville PO8 0TX, UK"}}
{"0":{"lat":51.064453125,"lon":-1.2744140625,"address":"3P7G+Q6 Winchester, UK"}}
{"0":{"lat":53.1298828125,"lon":-4.04296875,"address":"4XH4+XR Bangor, UK"}}
{"0":{"lat":53.701171875,"lon":-1.4501953125,"address":"PG2X+FW Normanton, UK"}}
{"0":{"lat":52.3388671875,"lon":0.17578125,"address":"85QG+G8 Ely, UK"}}
{"0":{"lat":53.173828125,"lon":-1.1865234375,"address":"48 Worcester Ave, Mansfield Woodhouse, Mansfield NG19 8QD, UK"}}
{"0":{"lat":54.0087890625,"lon":-0.3515625,"address":"2J5X+G9 Driffield, UK"}}
{"0":{"lat":53.26171875,"lon":-3.427734375,"address":"7H6C+MW Saint Asaph, UK"}}
{"0":{"lat":52.470703125,"lon":-0.791015625,"address":"F6C5+7H Market Harborough, UK"}}
{"0":{"lat":51.2841796875,"lon":-2.28515625,"address":"21 The Mead, Rode, Frome BA11 6PF, UK"}}
{"0":{"lat":54.140625,"lon":-0.7470703125,"address":"47R3+65 Malton, UK"}}
{"0":{"lat":53.0419921875,"lon":-1.6259765625,"address":"29RF+QJ Ashbourne, UK"}}
{"0":{"lat":51.943359375,"lon":-4.5263671875,"address":"WFVF+8F Carmarthen, UK"}}
{"0":{"lat":52.7783203125,"lon":-0.6591796875,"address":"Q8HR+88 Grantham, UK"}}
{"0":{"lat":54.0087890625,"lon":-2.7685546875,"address":"265J+GH Lancaster, UK"}}
{"0":{"lat":52.03125,"lon":-0.791015625,"address":"20 Greenhill Cl, Loughton, Milton Keynes MK5 8DG, UK"}}
{"0":{"lat":53.26171875,"lon":-3.076171875,"address":"7W6F+MG Neston, UK"}}
{"0":{"lat":53.26171875,"lon":-0.0439453125,"address":"7X64+MC Horncastle, UK"}}
{"0":{"lat":52.3828125,"lon":0.0,"address":"3 Bishops Yard, Somersham, Huntingdon PE28 3JZ, UK"}}
{"0":{"lat":51.064453125,"lon":-1.58203125,"address":"Manor Farm, Salisbury SP5 1LE, UK"}}
{"0":{"lat":50.9765625,"lon":0.3955078125,"address":"X9GW+J6 Etchingham, UK"}}
{"0":{"lat":52.3828125,"lon":-0.703125,"address":"9 Park Vw, Kettering NN15 6WP, UK"}}
{"0":{"lat":53.3935546875,"lon":-3.251953125,"address":"9PVX+C6 Wirral, UK"}}
{"0":{"lat":50.9326171875,"lon":0.7470703125,"address":"WPMW+2R Rye, UK"}}
{"0":{"lat":52.7783203125,"lon":-2.0654296875,"address":"Brocton Park Farm, Cannock Rd, Stafford ST17 0SU, UK"}}
{"0":{"lat":51.2841796875,"lon":-1.93359375,"address":"73M8+MH Devizes, UK"}}
{"0":{"lat":52.55859375,"lon":0.791015625,"address":"HQ5R+CC Thetford, UK"}}
{"0":{"lat":54.3603515625,"lon":-0.966796875,"address":"926M+47 Pickering, UK"}}
{"0":{"lat":51.7236328125,"lon":-1.6259765625,"address":"P9FF+FJ Bampton, UK"}}
{"0":{"lat":52.1630859375,"lon":-3.2958984375,"address":"5P73+6J Builth Wells, UK"}}
{"0":{"lat":54.0087890625,"lon":-0.9228515625,"address":"235G+GV Sand Hutton, York, UK"}}
{"0":{"lat":50.712890625,"lon":-3.1640625,"address":"Sunnygarth, Seaton EX12 3BP, UK"}}
{"0":{"lat":51.240234375,"lon":-2.28515625,"address":"6PR7+3W Frome, UK"}}
{"0":{"lat":52.20703125,"lon":-4.482421875,"address":"6G49+R2 Llandysul, UK"}}
{"0":{"lat":50.4931640625,"lon":-4.21875,"address":"FQVJ+7G Yelverton, UK"}}
{"0":{"lat":54.228515625,"lon":-2.021484375,"address":"6XHH+CC Leyburn, UK"}}
{"0":{"lat":51.2841796875,"lon":0.439453125,"address":"17 Gilletts Ln, East Malling, West Malling ME19 6AS, UK"}}
{"0":{"lat":54.0087890625,"lon":-0.3955078125,"address":"2J53+GQ Driffield, UK"}}
{"0":{"lat":52.646484375,"lon":-1.6259765625,"address":"1 Pear Tree Cl, Shuttington, Tamworth B79 0DU, UK"}}
{"0":{"lat":53.4814453125,"lon":-3.1640625,"address":"FRJP+H9 Liverpool, UK"}}
{"0":{"lat":51.3720703125,"lon":-1.0546875,"address":"Joel House, 68 The Avenue, Mortimer Common, Reading RG7 3QX, UK"}}
{"0":{"lat":54.7998046875,"lon":-3.076171875,"address":"QWXF+WG Wigton, UK"}}
{"0":{"lat":52.470703125,"lon":-4.306640625,"address":"9C4QFMCV+78"}}
{"0":{"lat":52.6904296875,"lon":-1.494140625,"address":"MGR4+58 Swadlincote, UK"}}
{"0":{"lat":54.5361328125,"lon":-2.63671875,"address":"G9P7+F8 Penrith, UK"}}
{"0":{"lat":51.2841796875,"lon":0.0439453125,"address":"Tatsfield Court Farm, Tatsfield, Westerham TN16 2EL, UK"}}
{"0":{"lat":54.404296875,"lon":-0.9228515625,"address":"C33G+PV Whitby, UK"}}
{"0":{"lat":52.55859375,"lon":-2.197265625,"address":"Dene House, Dene Rd, Wolverhampton WV4 4UU, UK"}}
{"0":{"lat":52.3388671875,"lon":-3.779296875,"address":"86QC+G7 Ystrad Meurig, UK"}}
{"0":{"lat":51.767578125,"lon":-0.52734375,"address":"3 Hempstead Ln, Potten End, Berkhamsted HP4 2QJ, UK"}}
{"0":{"lat":53.96484375,"lon":-0.791015625,"address":"X675+WH Meltonby, York, UK"}}
{"0":{"lat":51.6357421875,"lon":-1.1865234375,"address":"JRP7+79 Abingdon, UK"}}
{"0":{"lat":52.20703125,"lon":-0.52734375,"address":"6F4F+R3 Bedford, UK"}}
{"0":{"lat":51.6357421875,"lon":-0.52734375,"address":"JFPF+73 Rickmansworth, UK"}}
{"0":{"lat":50.5810546875,"lon":-3.5595703125,"address":"Oakwood Farm Riding Centre, Newton Abbot TQ13 0BQ, UK"}}
{"0":{"lat":52.7783203125,"lon":-1.0546875,"address":"QWHW+84 Melton Mowbray, UK"}}
{"0":{"lat":51.4599609375,"lon":-1.93359375,"address":"F358+XH Calne, UK"}}
{"0":{"lat":51.1083984375,"lon":-0.263671875,"address":"2 Faygate Ln, Horsham RH12 4SN, UK"}}
{"0":{"lat":52.3388671875,"lon":-3.1201171875,"address":"8VQH+GX Knighton, UK"}}
{"0":{"lat":50.537109375,"lon":-3.427734375,"address":"GHPC+RW Dawlish, UK"}}
{"0":{"lat":52.0751953125,"lon":-4.4384765625,"address":"3HG6+3J Newcastle Emlyn, UK"}}
{"0":{"lat":52.8662109375,"lon":-3.8671875,"address":"V48M+F4 Blaenau Ffestiniog, UK"}}
{"0":{"lat":54.66796875,"lon":-2.197265625,"address":"MR93+53 Barnard Castle, UK"}}
{"0":{"lat":53.701171875,"lon":-2.4609375,"address":"81 Higher Perry St, Darwen BB3 3AE, UK"}}
{"0":{"lat":51.3720703125,"lon":-1.845703125,"address":"95C3+RP Marlborough, UK"}}
{"0":{"lat":50.80078125,"lon":-4.21875,"address":"RQ2J+8G Beaworthy, UK"}}
{"0":{"lat":52.3388671875,"lon":-2.98828125,"address":"82Q6+GM Knighton, UK"}}
{"0":{"lat":52.1630859375,"lon":-2.4169921875,"address":"5H7M+66 Worcester, UK"}}
{"0":{"lat":54.31640625,"lon":-1.3623046875,"address":"8J8Q+H3 Northallerton, UK"}}
{"0":{"lat":52.3388671875,"lon":-2.197265625,"address":"8RQ3+G3 Droitwich, UK"}}
{"0":{"lat":52.91015625,"lon":-4.1748046875,"address":"WR6G+33 Porthmadog, UK"}}
{"0":{"lat":53.9208984375,"lon":-0.3515625,"address":"WJCX+99 Driffield, UK"}}
{"0":{"lat":51.50390625,"lon":-3.515625,"address":"GF3M+HP Bridgend, UK"}}
{"0":{"lat":53.7451171875,"lon":-2.2412109375,"address":"PQW5+2G Rossendale, UK"}}
{"0":{"lat":51.8994140625,"lon":-1.7578125,"address":"V6XR+QV Cheltenham, UK"}}
{"0":{"lat":51.0205078125,"lon":-2.548828125,"address":"2FC2+6F Yeovil, UK"}}
{"0":{"lat":50.625,"lon":-3.9990234375,"address":"J2F2+X9 Tavistock, UK"}}
{"0":{"lat":51.85546875,"lon":-1.3623046875,"address":"Hill Rise, Woodstock OX20 1AA, UK"}}
{"0":{"lat":51.767578125,"lon":0.1318359375,"address":"Q49J+2P Harlow, UK"}}
{"0":{"lat":53.3935546875,"lon":-3.0322265625,"address":"7 Knowles St, Birkenhead CH41 4BL, UK"}}
{"0":{"lat":51.328125,"lon":-0.439453125,"address":"8HH6+3H, Cobham KT11 1EN, UK"}}
{"0":{"lat":52.822265625,"lon":-0.52734375,"address":"RFCF+W3 Grantham, UK"}}
{"0":{"lat":52.5146484375,"lon":-3.9111328125,"address":"G37Q+VG Machynlleth, UK"}}
{"0":{"lat":50.9765625,"lon":-2.4169921875,"address":"XHGM+J6 Templecombe, UK"}}
{"0":{"lat":52.9541015625,"lon":-3.2080078125,"address":"XQ3R+JQ Llangollen, UK"}}
{"0":{"lat":54.580078125,"lon":-3.1640625,"address":"Cattle Grid, Keswick CA12 5UE, UK"}}
{"0":{"lat":52.2509765625,"lon":1.2744140625,"address":"772F+9Q Woodbridge, UK"}}
{"0":{"lat":52.2509765625,"lon":-2.109375,"address":"7V2R+96 Droitwich, UK"}}
{"0":{"lat":50.6689453125,"lon":-3.515625,"address":"MF9M+HP Exeter, UK"}}
{"0":{"lat":52.4267578125,"lon":-0.3955078125,"address":"CJG3+PQ Peterborough, UK"}}
{"0":{"lat":51.8994140625,"lon":-0.4833984375,"address":"Lewsey Sports Park Gym, Pastures Way, Luton LU4 0PF, UK"}}
{"0":{"lat":52.5146484375,"lon":-0.0439453125,"address":"GX74+VC March, UK"}}
{"0":{"lat":53.7890625,"lon":-1.1865234375,"address":"QRQ7+J9 Leeds, UK"}}
{"0":{"lat":53.701171875,"lon":-0.087890625,"address":"PW26+FR Hull, UK"}}
{"0":{"lat":53.349609375,"lon":0.0439453125,"address":"82XV+RH Louth, UK"}}
{"0":{"lat":54.6240234375,"lon":-3.0322265625,"address":"JXF9+J4 Keswick, UK"}}
{"0":{"lat":51.9873046875,"lon":-2.5927734375,"address":"Church, Hereford HR1 4SD, UK"}}
{"0":{"lat":51.1962890625,"lon":-0.703125,"address":"57WW+GQ Godalming, UK"}}
{"0":{"lat":52.7783203125,"lon":-3.427734375,"address":"QHHC+8W Llanfyllin, UK"}}
{"0":{"lat":53.349609375,"lon":-3.2080078125,"address":"8QXR+RQ Wirral, UK"}}
{"0":{"lat":51.15234375,"lon":0.0439453125,"address":"522V+WH East Grinstead, UK"}}
{"0":{"lat":53.8330078125,"lon":-1.0107421875,"address":"RXMQ+6P Selby, UK"}}
{"0":{"lat":54.4921875,"lon":-1.9775390625,"address":"F2RC+VX Barnard Castle, UK"}}
{"0":{"lat":52.20703125,"lon":-4.7900390625,"address":"9C4Q6645+RX"}}
{"0":{"lat":52.55859375,"lon":-1.845703125,"address":"H553+CP Sutton Coldfield, UK"}}
{"0":{"lat":52.0751953125,"lon":-0.3076171875,"address":"3MGR+3X Biggleswade, UK"}}
{"0":{"lat":54.3603515625,"lon":-1.142578125,"address":"9V64+4X Middlesbrough, UK"}}
{"0":{"lat":50.625,"lon":-3.6474609375,"address":"J9F3+X2 Exeter, UK"}}
{"0":{"lat":53.876953125,"lon":-1.2744140625,"address":"68 Willow Rise, Tadcaster LS24 9LL, UK"}}
{"0":{"lat":52.20703125,"lon":-2.28515625,"address":"6P47+RW Worcester, UK"}}
{"0":{"lat":52.6025390625,"lon":0.7470703125,"address":"JP3W+2R Swaffham, UK"}}
{"0":{"lat":53.876953125,"lon":-2.6806640625,"address":"V8G9+QP Preston, UK"}}
{"0":{"lat":52.03125,"lon":-4.8779296875,"address":"24JC+GR Newport, UK"}}
{"0":{"lat":51.50390625,"lon":-0.7470703125,"address":"10 Rylstone Cl, Maidenhead SL6 3HT, UK"}}
{"0":{"lat":50.80078125,"lon":-3.427734375,"address":"RH2C+8W Exeter, UK"}}
{"0":{"lat":52.294921875,"lon":-0.7470703125,"address":"77V3+X5 Northampton, UK"}}
{"0":{"lat":53.2177734375,"lon":-2.6806640625,"address":"6899+4P Tarporley, UK"}}
{"0":{"lat":52.0751953125,"lon":-1.5380859375,"address":"3FG6+3Q Banbury, UK"}}
{"0":{"lat":53.8330078125,"lon":-0.9228515625,"address":"R3MG+6V Selby, UK"}}
{"0":{"lat":53.0859375,"lon":-3.7353515625,"address":"37P7+9V Llanrwst, UK"}}
{"0":{"lat":52.734375,"lon":-1.0986328125,"address":"15 Hanover Dr, Sileby, Loughborough LE12 7PL, UK"}}
{"0":{"lat":52.9541015625,"lon":-0.263671875,"address":"XP3P+JG Sleaford, UK"}}
{"0":{"lat":53.0859375,"lon":-2.8564453125,"address":"34PV+9C Chester, UK"}}
{"0":{"lat":51.3720703125,"lon":-2.197265625,"address":"9RC3+R3 Melksham, UK"}}
{"0":{"lat":54.228515625,"lon":-2.109375,"address":"6VHR+C6 Skipton, UK"}}
{"0":{"lat":51.328125,"lon":-0.1318359375,"address":"60 The Vale, Purley, Coulsdon CR5 2AW, UK"}}
{"0":{"lat":52.4267578125,"lon":-2.28515625,"address":"CPG7+PW Kidderminster, UK"}}
{"0":{"lat":54.2724609375,"lon":-2.1533203125,"address":"7RCW+XM Leyburn, UK"}}
{"0":{"lat":53.1298828125,"lon":0.1318359375,"address":"2 Halton Fen, Spilsby PE23 5BE, UK"}}
{"0":{"lat":51.2841796875,"lon":0.791015625,"address":"7QMR+MC Sittingbourne, UK"}}
{"0":{"lat":51.7236328125,"lon":-3.33984375,"address":"PMF6+F3 Merthyr Tydfil, UK"}}
{"0":{"lat":52.646484375,"lon":1.0986328125,"address":"J3WX+HF Dereham, UK"}}
{"0":{"lat":54.052734375,"lon":-0.5712890625,"address":"3C3H+3F Driffield, UK"}}
{"0":{"lat":52.20703125,"lon":0.3515625,"address":"6942+RJ Newmarket, UK"}}
{"0":{"lat":52.6904296875,"lon":-4.3505859375,"address":"9C4QMJRX+5Q"}}
{"0":{"lat":52.8662109375,"lon":-4.3505859375,"address":"VJ8X+FQ Pwllheli, UK"}}
{"0":{"lat":51.1962890625,"lon":-1.93359375,"address":"53W8+GH Salisbury, UK"}}
{"0":{"lat":53.4375,"lon":-0.791015625,"address":"C6P5+XH Gainsborough, UK"}}
{"0":{"lat":52.0751953125,"lon":-0.439453125,"address":"3HG6+36 Bedford, UK"}}
{"0":{"lat":52.6025390625,"lon":-4.2626953125,"address":"JP3P+2W Tywyn, UK"}}
{"0":{"lat":50.8447265625,"lon":-3.9990234375,"address":"R2V2+V9 Winkleigh, UK"}}
{"0":{"lat":50.9765625,"lon":-4.130859375,"address":"XVG9+JMC Torrington, UK"}}
{"0":{"lat":52.822265625,"lon":-1.8017578125,"address":"10 Yoxall Rd, Newborough, Burton-on-Trent DE13 8SB, UK"}}
{"0":{"lat":54.755859375,"lon":-2.5927734375,"address":"QC44+8V Penrith, UK"}}
{"0":{"lat":51.767578125,"lon":-4.130859375,"address":"QV99+2M Llanelli, UK"}}
{"0":{"lat":52.2509765625,"lon":0.3076171875,"address":"7825+92 Cambridge, UK"}}
{"0":{"lat":51.3720703125,"lon":0.0,"address":"37 Addington Rd, West Wickham BR4 9BN, UK"}}
{"0":{"lat":52.5146484375,"lon":0.17578125,"address":"G57G+V8 March, UK"}}
{"0":{"lat":50.6689453125,"lon":-3.2958984375,"address":"MP93+HJ Budleigh Salterton, UK"}}
{"0":{"lat":53.525390625,"lon":-2.4169921875,"address":"15 Gibson Ln, Worsley, Little Hulton, Manchester M28 0BJ, UK"}}
{"0":{"lat":52.3828125,"lon":1.23046875,"address":"96MJ+45 Diss, UK"}}
{"0":{"lat":52.646484375,"lon":-2.5048828125,"address":"JFWW+H2 Telford, UK"}}
{"0":{"lat":52.6025390625,"lon":-2.7685546875,"address":"J63J+2H Church Stretton, UK"}}
{"0":{"lat":51.2841796875,"lon":1.142578125,"address":"74MV+M2 Canterbury, UK"}}
{"0":{"lat":53.173828125,"lon":-0.5712890625,"address":"5CFH+GF Waddington, Lincoln, UK"}}
{"0":{"lat":50.712890625,"lon":-3.3837890625,"address":"Wellbeck Farm, Exeter EX5 2JA, UK"}}
{"0":{"lat":52.0751953125,"lon":-2.109375,"address":"3VGR+36 Pershore, UK"}}
{"0":{"lat":51.1083984375,"lon":0.791015625,"address":"Harlakenden Farm, Woodchurch, Ashford TN26 3PT, UK"}}
{"0":{"lat":53.173828125,"lon":-3.251953125,"address":"5PFX+G6 Mold, UK"}}
{"0":{"lat":53.61328125,"lon":-2.6806640625,"address":"J879+8P Chorley, UK"}}
{"0":{"lat":52.0751953125,"lon":-4.130859375,"address":"3VG9+3M Llanybydder, UK"}}
{"0":{"lat":51.416015625,"lon":-2.1533203125,"address":"CR8W+CM Corsham, UK"}}
{"0":{"lat":51.591796875,"lon":-2.021484375,"address":"HXRH+PC Malmesbury, UK"}}
{"0":{"lat":51.8115234375,"lon":-0.6591796875,"address":"R86R+J8 Tring, UK"}}
{"0":{"lat":54.052734375,"lon":-0.615234375,"address":"393M+3W Driffield, UK"}}
{"0":{"lat":53.9208984375,"lon":-0.7470703125,"address":"W7C3+95 Pocklington, York, UK"}}
{"0":{"lat":52.20703125,"lon":-1.1865234375,"address":"1 Little Fawsley, Daventry NN11 3BU, UK"}}
{"0":{"lat":53.2177734375,"lon":-1.845703125,"address":"6593+4P Buxton, UK"}}
{"0":{"lat":52.9541015625,"lon":-3.251953125,"address":"XP3X+J6 Corwen, UK"}}
{"0":{"lat":52.7783203125,"lon":1.2744140625,"address":"Q7HF+8Q Aylsham, Norwich, UK"}}
{"0":{"lat":52.998046875,"lon":-1.6259765625,"address":"X9XF+6J Ashbourne, UK"}}
{"0":{"lat":51.15234375,"lon":-3.779296875,"address":"562C+W7 Minehead, UK"}}
{"0":{"lat":52.91015625,"lon":-3.6474609375,"address":"W963+32 Bala, UK"}}
{"0":{"lat":51.8115234375,"lon":-1.845703125,"address":"R563+JP Cheltenham, UK"}}
{"0":{"lat":53.61328125,"lon":-2.1533203125,"address":"Drake Street\/Milnrow Road, Rochdale OL16 1PN, UK"}}
{"0":{"lat":52.7783203125,"lon":1.318359375,"address":"Q8H9+88 North Walsham, UK"}}
{"0":{"lat":52.6904296875,"lon":-3.427734375,"address":"MHRC+5W Welshpool, UK"}}
{"0":{"lat":54.2724609375,"lon":-1.0986328125,"address":"7WC2+XG Thirsk, UK"}}
{"0":{"lat":51.767578125,"lon":-3.33984375,"address":"QM96+23 Merthyr Tydfil, UK"}}
{"0":{"lat":52.119140625,"lon":-1.494140625,"address":"4G94+M8 Warwick, UK"}}
{"0":{"lat":53.26171875,"lon":-2.8564453125,"address":"746V+MC Chester, UK"}}
{"0":{"lat":51.50390625,"lon":-1.494140625,"address":"GG34+H8 Hungerford, UK"}}
{"0":{"lat":52.8662109375,"lon":0.703125,"address":"VP83+F6 King's Lynn, UK"}}
{"0":{"lat":51.50390625,"lon":-0.1318359375,"address":"GV39+H7 London, UK"}}
{"0":{"lat":51.6357421875,"lon":-1.40625,"address":"13 The Causeway, East Hanney, Wantage OX12 0JN, UK"}}
{"0":{"lat":51.8115234375,"lon":-3.6474609375,"address":"R963+J2 Neath, UK"}}
{"0":{"lat":54.228515625,"lon":-1.8017578125,"address":"65HX+C7 Ripon, UK"}}
{"0":{"lat":50.888671875,"lon":-1.8896484375,"address":"V4Q6+F4 Verwood, UK"}}
{"0":{"lat":51.943359375,"lon":-5.09765625,"address":"WWV2+8W Haverfordwest, UK"}}
{"0":{"lat":51.6796875,"lon":-3.69140625,"address":"M8H5+VC Neath, UK"}}
{"0":{"lat":52.6904296875,"lon":-0.4833984375,"address":"MGR8+5J Stamford, UK"}}
{"0":{"lat":52.3388671875,"lon":-1.0546875,"address":"8WQW+G4 Northampton, UK"}}
{"0":{"lat":52.470703125,"lon":-0.6591796875,"address":"8 Old Rd, Stanion, Kettering NN14 1QB, UK"}}
{"0":{"lat":51.50390625,"lon":-2.021484375,"address":"GX3H+HC Chippenham, UK"}}
{"0":{"lat":53.0419921875,"lon":-0.87890625,"address":"24RC+QC Newark, UK"}}
{"0":{"lat":54.4921875,"lon":-2.4609375,"address":"FGRQ+VJ Appleby-in-Westmorland, UK"}}
{"0":{"lat":52.6904296875,"lon":0.6591796875,"address":"MMR5+5M King's Lynn, UK"}}
{"0":{"lat":53.26171875,"lon":-2.4169921875,"address":"Cheadle Farm Cheadle Lane Over Peover, Lower Peover, Knutsford WA16 9SN, UK"}}
{"0":{"lat":53.7451171875,"lon":-1.318359375,"address":"RSPB Fairburn Ings Visitor Centre, Newton Ln, Castleford WF10 2BH, UK"}}
{"0":{"lat":52.9541015625,"lon":-0.5712890625,"address":"XC3H+JF Grantham, UK"}}
{"0":{"lat":52.55859375,"lon":-3.9111328125,"address":"H35Q+CG Machynlleth, UK"}}
{"0":{"lat":53.525390625,"lon":-1.494140625,"address":"6 Round Green Ln, Worsbrough, Barnsley S75 3DR, UK"}}
{"0":{"lat":52.20703125,"lon":-3.33984375,"address":"6M46+R3 Llandrindod Wells, UK"}}
{"0":{"lat":52.998046875,"lon":-4.130859375,"address":"XVX9+6M Porthmadog, UK"}}
{"0":{"lat":53.4375,"lon":-0.3076171875,"address":"CMPR+XX Market Rasen, UK"}}
{"0":{"lat":51.943359375,"lon":0.0,"address":"W2V2+82 Buntingford, UK"}}
{"0":{"lat":54.404296875,"lon":-2.197265625,"address":"CR33+P3 Kirkby Stephen, UK"}}
{"0":{"lat":52.9541015625,"lon":-1.93359375,"address":"X338+JH Stoke-on-Trent, UK"}}
{"0":{"lat":51.2841796875,"lon":-1.494140625,"address":"7GM4+M8 Andover, UK"}}
{"0":{"lat":52.3388671875,"lon":-4.306640625,"address":"8MQV+G8 Llanon, UK"}}
{"0":{"lat":51.85546875,"lon":-3.69140625,"address":"V845+5C Llangadog, UK"}}
{"0":{"lat":52.3388671875,"lon":-1.9775390625,"address":"82QC+GX Birmingham, UK"}}
{"0":{"lat":52.3828125,"lon":-2.5927734375,"address":"9CM4+4V Ludlow, UK"}}
{"0":{"lat":52.03125,"lon":-1.0546875,"address":"2WJW+G4 Buckingham, UK"}}
{"0":{"lat":51.6796875,"lon":0.087890625,"address":"M3HQ+V5C Epping, UK"}}
{"0":{"lat":52.1630859375,"lon":-0.17578125,"address":"5R7F+6M Sandy, UK"}}
{"0":{"lat":50.712890625,"lon":-4.21875,"address":"PQ7J+5G Beaworthy, UK"}}
{"0":{"lat":53.2177734375,"lon":-2.109375,"address":"6V9R+46 Macclesfield, UK"}}
{"0":{"lat":51.8115234375,"lon":-4.482421875,"address":"RG69+J2 Carmarthen, UK"}}
{"0":{"lat":53.5693359375,"lon":-2.5048828125,"address":"HF9W+P2 Bolton, UK"}}
{"0":{"lat":54.052734375,"lon":-0.8349609375,"address":"3538+32 Malton, UK"}}
{"0":{"lat":50.80078125,"lon":-3.1640625,"address":"RR2P+89 Honiton, UK"}}
{"0":{"lat":53.8330078125,"lon":-0.439453125,"address":"RHM5+GQ, Beverley HU17 8RG, UK"}}
{"0":{"lat":50.8447265625,"lon":-3.779296875,"address":"R6VC+V7 Crediton, UK"}}
{"0":{"lat":54.7119140625,"lon":-2.5927734375,"address":"PC64+QV Penrith, UK"}}
{"0":{"lat":51.9873046875,"lon":0.7470703125,"address":"2 Alphamstone Rd, Lamarsh, Bures CO8 5ES, UK"}}
{"0":{"lat":51.9873046875,"lon":-5.0537109375,"address":"XWPW+WG Goodwick, UK"}}
{"0":{"lat":51.767578125,"lon":0.3515625,"address":"Q992+2J Chelmsford, UK"}}
{"0":{"lat":51.0205078125,"lon":-1.0986328125,"address":"2WC2+6G Petersfield, UK"}}
{"0":{"lat":54.5361328125,"lon":-1.5380859375,"address":"River View Industrial Estate, Darlington DL1 2NS, UK"}}
{"0":{"lat":50.7568359375,"lon":-3.603515625,"address":"Q94W+PH Exeter, UK"}}
{"0":{"lat":51.9873046875,"lon":-3.2958984375,"address":"XPP3+WJ Brecon, UK"}}
{"0":{"lat":53.349609375,"lon":-0.2197265625,"address":"8QXJ+R4 Market Rasen, UK"}}
{"0":{"lat":52.03125,"lon":-4.04296875,"address":"2XJ4+GR Llandeilo, UK"}}
{"0":{"lat":51.8994140625,"lon":-4.21875,"address":"VQXJ+QG Carmarthen, UK"}}
{"0":{"lat":52.4267578125,"lon":-4.658203125,"address":"9C4QC8GR+PP"}}
{"0":{"lat":53.4814453125,"lon":-1.7578125,"address":"F6JR+HV Glossop, UK"}}
{"0":{"lat":53.3935546875,"lon":-0.3076171875,"address":"9MVR+CX Market Rasen, UK"}}
{"0":{"lat":51.328125,"lon":-0.263671875,"address":"29 Worple Rd, Epsom KT18 5EP, UK"}}
{"0":{"lat":54.6240234375,"lon":-2.5927734375,"address":"JCF4+JV Penrith, UK"}}
{"0":{"lat":51.85546875,"lon":-3.33984375,"address":"VM46+53 Brecon, UK"}}
{"0":{"lat":51.064453125,"lon":-3.7353515625,"address":"3777+QV South Molton, UK"}}
{"0":{"lat":50.8447265625,"lon":-2.548828125,"address":"RFV2+VF Dorchester, UK"}}
{"0":{"lat":50.7568359375,"lon":-2.109375,"address":"QV4R+P6 Wareham, UK"}}
{"0":{"lat":51.1962890625,"lon":0.966796875,"address":"5XW8+GP Ashford, UK"}}
{"0":{"lat":52.2509765625,"lon":-3.515625,"address":"7F2M+9P Llandrindod Wells, UK"}}
{"0":{"lat":50.8447265625,"lon":-3.9111328125,"address":"R3VQ+VG Winkleigh, UK"}}
{"0":{"lat":51.1962890625,"lon":-1.3623046875,"address":"5JWQ+G3 Andover, UK"}}
{"0":{"lat":52.0751953125,"lon":-1.7578125,"address":"36GR+3V Chipping Campden, UK"}}
{"0":{"lat":51.767578125,"lon":-0.1318359375,"address":"QV99+27 Hertford, UK"}}
{"0":{"lat":53.96484375,"lon":-1.58203125,"address":"XC79+W5 Harrogate, UK"}}
{"0":{"lat":52.7783203125,"lon":-0.3076171875,"address":"QMHR+8X Bourne, UK"}}
{"0":{"lat":51.767578125,"lon":0.17578125,"address":"Pump Cottage, New Way Ln, Threshers Bush, Harlow CM17 0NT, UK"}}
{"0":{"lat":52.470703125,"lon":-1.58203125,"address":"FCC9+75 Coventry, UK"}}
{"0":{"lat":53.1298828125,"lon":-2.724609375,"address":"47HG+X5 Chester, UK"}}
{"0":{"lat":53.1298828125,"lon":-0.703125,"address":"47HW+XQ Newark, UK"}}
{"0":{"lat":53.61328125,"lon":-0.703125,"address":"J77W+8Q Scunthorpe, UK"}}
{"0":{"lat":51.328125,"lon":-2.5048828125,"address":"8FHW+62 Bath, UK"}}
{"0":{"lat":51.9873046875,"lon":-0.17578125,"address":"Clothall Road Allotments, Baldock SG7 6RY, UK"}}
{"0":{"lat":52.646484375,"lon":-2.109375,"address":"JVWR+H6 Wolverhampton, UK"}}
{"0":{"lat":51.064453125,"lon":-3.2080078125,"address":"3Q7R+QQ Taunton, UK"}}
{"0":{"lat":52.20703125,"lon":-3.1640625,"address":"6R4P+R9 Presteigne, UK"}}
{"0":{"lat":50.4931640625,"lon":-4.04296875,"address":"FXV4+7R Yelverton, UK"}}
{"0":{"lat":52.822265625,"lon":-1.2744140625,"address":"RPCG+W6 Derby, UK"}}
{"0":{"lat":52.5146484375,"lon":-4.5703125,"address":"9C4QGC7H+VV"}}
{"0":{"lat":53.8330078125,"lon":-1.2744140625,"address":"RPMG+66 Tadcaster, UK"}}
{"0":{"lat":52.91015625,"lon":-2.9443359375,"address":"W364+37 Ellesmere, UK"}}
{"0":{"lat":52.6025390625,"lon":1.0546875,"address":"J333+2V Wymondham, UK"}}
{"0":{"lat":51.7236328125,"lon":-1.9775390625,"address":"P2FC+FX Cirencester, UK"}}
{"0":{"lat":50.80078125,"lon":-2.7685546875,"address":"R62J+8H Beaminster, UK"}}
{"0":{"lat":51.15234375,"lon":-2.109375,"address":"5V2R+W6 Salisbury, UK"}}
{"0":{"lat":50.888671875,"lon":-2.28515625,"address":"VPQ7+FW Blandford Forum, UK"}}
{"0":{"lat":51.8994140625,"lon":-3.779296875,"address":"V6XC+Q7 Llangadog, UK"}}
{"0":{"lat":52.470703125,"lon":-3.8671875,"address":"F4CM+74 Talybont, UK"}}
{"0":{"lat":50.7568359375,"lon":-3.779296875,"address":"Q64C+P7 Exeter, UK"}}
{"0":{"lat":52.55859375,"lon":1.142578125,"address":"H45V+C2 Wymondham, UK"}}
{"0":{"lat":52.8662109375,"lon":-1.0986328125,"address":"VW82+FG Nottingham, UK"}}
{"0":{"lat":51.0205078125,"lon":0.1318359375,"address":"24CJ+6P Uckfield, UK"}}
{"0":{"lat":52.6904296875,"lon":-1.58203125,"address":"MCR9+55 Swadlincote, UK"}}
{"0":{"lat":53.1298828125,"lon":-3.7353515625,"address":"47H7+XV Llanrwst, UK"}}
{"0":{"lat":52.6904296875,"lon":-4.5703125,"address":"MCRH+5V Pwllheli, UK"}}
{"0":{"lat":51.0205078125,"lon":-1.23046875,"address":"2 Stable Yard Cottages, Longwood, Owslebury, Winchester SO21 1LB, UK"}}
{"0":{"lat":53.349609375,"lon":-1.8017578125,"address":"85XX+R7 Hope Valley, UK"}}
{"0":{"lat":52.03125,"lon":0.966796875,"address":"2XJ8+GP Ipswich, UK"}}
{"0":{"lat":50.8447265625,"lon":-2.9443359375,"address":"Waterlake Road, Chard TA20 2SZ, UK"}}
{"0":{"lat":50.7568359375,"lon":-3.427734375,"address":"QH4C+PW Exeter, UK"}}
{"0":{"lat":50.9765625,"lon":-0.615234375,"address":"X9GM+JWC Petworth, UK"}}
{"0":{"lat":52.822265625,"lon":-0.2197265625,"address":"1 N Gate, Northgate, Pinchbeck, Spalding PE11 3TB, UK"}}
{"0":{"lat":51.8994140625,"lon":-3.603515625,"address":"V9XW+QH Brecon, UK"}}
{"0":{"lat":53.0859375,"lon":-3.5595703125,"address":"3CPR+95 Abergele, UK"}}
{"0":{"lat":51.8115234375,"lon":-1.93359375,"address":"R368+JH Cheltenham, UK"}}
{"0":{"lat":53.1298828125,"lon":-1.318359375,"address":"4MHJ+XM Sutton-in-Ashfield, UK"}}
{"0":{"lat":51.9873046875,"lon":-1.5380859375,"address":"XFP6+WQ Chipping Norton, UK"}}
{"0":{"lat":54.404296875,"lon":-1.669921875,"address":"C83J+P2 Brompton on Swale, Richmond, UK"}}
{"0":{"lat":52.6025390625,"lon":-0.6591796875,"address":"J83R+28 Oakham, UK"}}
{"0":{"lat":53.4814453125,"lon":-2.8125,"address":"F5JP+HX Saint Helens, UK"}}
{"0":{"lat":52.03125,"lon":-1.6259765625,"address":"29JF+GJ Shipston-on-Stour, UK"}}
{"0":{"lat":53.0859375,"lon":-0.087890625,"address":"3WP6+9RH Boston, UK"}}
{"0":{"lat":52.03125,"lon":-4.5263671875,"address":"2FJF+GF Newcastle Emlyn, UK"}}
{"0":{"lat":50.9326171875,"lon":-4.04296875,"address":"WXM4+2R Winkleigh, UK"}}
{"0":{"lat":52.7783203125,"lon":1.0107421875,"address":"3 Gunn St, Dereham NR20 5RJ, UK"}}
{"0":{"lat":51.1962890625,"lon":-2.5927734375,"address":"Lynwood, Long St, Croscombe, Wells BA5 3QQ, UK"}}
{"0":{"lat":52.2509765625,"lon":-0.791015625,"address":"7625+9H Northampton, UK"}}
{"0":{"lat":52.998046875,"lon":-2.548828125,"address":"XFX2+6F Nantwich, UK"}}
{"0":{"lat":52.646484375,"lon":-4.2626953125,"address":"JPWP+HW Tywyn, UK"}}
{"0":{"lat":54.31640625,"lon":-2.28515625,"address":"8P87+HW Hawes, UK"}}
{"0":{"lat":54.31640625,"lon":-1.669921875,"address":"888J+H2 Bedale, UK"}}
{"0":{"lat":51.591796875,"lon":-0.3955078125,"address":"6 The Circuits, Pinner HA5 2BD, UK"}}
{"0":{"lat":51.6357421875,"lon":-4.130859375,"address":"39 Rhyd Y Fenni, Crofty, Swansea SA4 3SA, UK"}}
{"0":{"lat":51.3720703125,"lon":-0.8349609375,"address":"Tree Tops, Heath Ride, Finchampstead, Wokingham RG40 3QL, UK"}}
{"0":{"lat":53.349609375,"lon":-3.6474609375,"address":"89X3+R2 Abergele, UK"}}
{"0":{"lat":52.822265625,"lon":1.142578125,"address":"37 Irmingland Rd, Corpusty, Norwich NR11 6QE, UK"}}
{"0":{"lat":53.3935546875,"lon":-2.109375,"address":"18 Bean Leach Ave, Stockport SK2 5JA, UK"}}
{"0":{"lat":52.4267578125,"lon":-0.52734375,"address":"27 Cross Ln, Aldwincle, Kettering NN14 3EG, UK"}}
{"0":{"lat":52.3388671875,"lon":-3.603515625,"address":"89QW+GH Rhayader, UK"}}
{"0":{"lat":52.294921875,"lon":1.0546875,"address":"73V3+XV Eye, UK"}}
{"0":{"lat":50.888671875,"lon":-0.1318359375,"address":"Standean Farm, Standean, Brighton BN1 8ZB, UK"}}
{"0":{"lat":53.173828125,"lon":-1.494140625,"address":"5GF4+G8 Chesterfield, UK"}}
{"0":{"lat":51.15234375,"lon":0.615234375,"address":"5J28+W3 Ashford, UK"}}
{"0":{"lat":52.470703125,"lon":-3.2080078125,"address":"FQCR+7Q Newtown, UK"}}
{"0":{"lat":52.91015625,"lon":-0.791015625,"address":"W665+3H Grantham, UK"}}
{"0":{"lat":53.525390625,"lon":-1.40625,"address":"21 Main St, Wombwell, Barnsley S73 8JQ, UK"}}
{"0":{"lat":52.55859375,"lon":-3.69140625,"address":"H855+CC Llanbrynmair, UK"}}
{"0":{"lat":51.943359375,"lon":0.791015625,"address":"WQVR+8C Bures, UK"}}
{"0":{"lat":52.03125,"lon":-2.3291015625,"address":"2MJC+G9 Malvern, UK"}}
{"0":{"lat":53.2177734375,"lon":-1.0107421875,"address":"6X9Q+4P Newark, UK"}}
{"0":{"lat":51.8994140625,"lon":-1.6259765625,"address":"V9XF+QJ Chipping Norton, UK"}}
{"0":{"lat":51.064453125,"lon":-1.494140625,"address":"3G74+Q8 Stockbridge, UK"}}
{"0":{"lat":52.03125,"lon":-0.439453125,"address":"2HJ6+G6 Bedford, UK"}}
{"0":{"lat":53.0859375,"lon":-0.3955078125,"address":"3JP3+9Q Digby, Lincoln, UK"}}
{"0":{"lat":52.03125,"lon":-1.494140625,"address":"2GJ4+G8 Banbury, UK"}}
{"0":{"lat":54.31640625,"lon":-1.7578125,"address":"868R+HV Leyburn, UK"}}
{"0":{"lat":53.0859375,"lon":-1.6259765625,"address":"39PF+9J Matlock, UK"}}
{"0":{"lat":51.416015625,"lon":-2.4169921875,"address":"CH8M+C6 Bath, UK"}}
{"0":{"lat":54.0966796875,"lon":-2.0654296875,"address":"3WWM+MR Skipton, UK"}}
{"0":{"lat":51.1083984375,"lon":-1.0986328125,"address":"4W52+9G Alton, UK"}}
{"0":{"lat":52.2509765625,"lon":-0.8349609375,"address":"25 Seaton Dr, Northampton NN3 9SS, UK"}}
{"0":{"lat":53.8330078125,"lon":-2.28515625,"address":"1 Haddings Ln, Higham, Burnley BB12 9LU, UK"}}
{"0":{"lat":52.2509765625,"lon":-2.8564453125,"address":"742V+9C Leominster, UK"}}
{"0":{"lat":52.734375,"lon":-0.3076171875,"address":"PMMR+PX Peterborough, UK"}}
{"0":{"lat":51.328125,"lon":0.703125,"address":"8PH3+66 Sittingbourne, UK"}}
{"0":{"lat":50.9765625,"lon":0.0,"address":"X2G2+J2 Lewes, UK"}}
{"0":{"lat":51.064453125,"lon":-0.3515625,"address":"A281 Guildford Rd, Horsham RH12 1SR, UK"}}
{"0":{"lat":52.822265625,"lon":-2.724609375,"address":"R7CG+W5 Shrewsbury, UK"}}
{"0":{"lat":51.9873046875,"lon":-4.21875,"address":"XQPJ+WG Pencader, UK"}}
{"0":{"lat":53.0419921875,"lon":-2.4609375,"address":"2GRQ+QJ Nantwich, UK"}}
{"0":{"lat":53.1298828125,"lon":-1.0546875,"address":"4WHW+X4 Newark, UK"}}
{"0":{"lat":52.91015625,"lon":-3.7353515625,"address":"W767+3V Bala, UK"}}
{"0":{"lat":52.1630859375,"lon":-5.0537109375,"address":"9C4P5W7W+6G"}}
{"0":{"lat":53.0859375,"lon":-1.8017578125,"address":"35PX+97 Ashbourne, UK"}}
{"0":{"lat":52.998046875,"lon":-0.263671875,"address":"XPXP+6G Sleaford, UK"}}
{"0":{"lat":52.6904296875,"lon":-2.548828125,"address":"MFR2+5F Telford, UK"}}
{"0":{"lat":53.26171875,"lon":-0.9228515625,"address":"736G+MV Retford, UK"}}
{"0":{"lat":51.85546875,"lon":-3.076171875,"address":"VW4F+5G Crickhowell, UK"}}
{"0":{"lat":53.1298828125,"lon":-2.4609375,"address":"Spring Farm Business Centre, Moss Lane, Minshull Vernon, Crewe CW1 4RJ, UK"}}
{"0":{"lat":51.5478515625,"lon":-1.0546875,"address":"GWXW+44 Reading, UK"}}
{"0":{"lat":50.5810546875,"lon":-3.8671875,"address":"H4JM+C4 Newton Abbot, UK"}}
{"0":{"lat":51.1962890625,"lon":-0.1318359375,"address":"Woolborough Farm, Redhill RH1 5QR, UK"}}
{"0":{"lat":52.6025390625,"lon":-4.130859375,"address":"JV39+2M Tywyn, UK"}}
{"0":{"lat":50.537109375,"lon":-3.33984375,"address":"GMP6+R3 Exeter, UK"}}
{"0":{"lat":50.9765625,"lon":-3.4716796875,"address":"XGGH+J8 Tiverton, UK"}}
{"0":{"lat":53.173828125,"lon":-1.7138671875,"address":"Duke's Piece Caravan Site, Coldwell End, Bakewell DE45 1LU, UK"}}
{"0":{"lat":53.26171875,"lon":-1.6259765625,"address":"796F+MJ Hope Valley, UK"}}
{"0":{"lat":52.03125,"lon":-4.4384765625,"address":"2HJ6+GJ Newcastle Emlyn, UK"}}
{"0":{"lat":52.1630859375,"lon":-1.3623046875,"address":"5J7Q+63 Banbury, UK"}}
{"0":{"lat":51.85546875,"lon":-1.6259765625,"address":"Manor Farm\/Upper Milton, Milton-under-Wychwood, Chipping Norton OX7 6EX, UK"}}
{"0":{"lat":50.4931640625,"lon":-3.6474609375,"address":"Bittons House, Beech Trees Ln, Ipplepen, Newton Abbot TQ12 5TW, UK"}}
{"0":{"lat":51.15234375,"lon":-4.1748046875,"address":"5R2G+W3 Braunton, UK"}}
{"0":{"lat":52.646484375,"lon":1.0107421875,"address":"J2W6+H7 Dereham, UK"}}
{"0":{"lat":52.5146484375,"lon":-2.28515625,"address":"GP77+VW Stourbridge, UK"}}
{"0":{"lat":52.734375,"lon":-0.52734375,"address":"PFMF+P3 Stamford, UK"}}
{"0":{"lat":53.6572265625,"lon":-2.021484375,"address":"MX4H+VC Sowerby Bridge, UK"}}
{"0":{"lat":52.9541015625,"lon":-2.8564453125,"address":"X43V+JC Wrexham, UK"}}
{"0":{"lat":52.6904296875,"lon":-4.39453125,"address":"9C4QMJR4+55"}}
{"0":{"lat":51.0205078125,"lon":-0.3955078125,"address":"2JC3+6Q Horsham, UK"}}
{"0":{"lat":52.734375,"lon":-1.8017578125,"address":"P5MX+P7 Burton-on-Trent, UK"}}
{"0":{"lat":52.20703125,"lon":-2.9443359375,"address":"6344+R7 Kington, UK"}}
{"0":{"lat":53.0859375,"lon":-0.439453125,"address":"3HP6+96F Sleaford, UK"}}
{"0":{"lat":52.2509765625,"lon":-4.5703125,"address":"9C4Q7C2H+9V"}}
{"0":{"lat":52.734375,"lon":-1.7138671875,"address":"P7MP+PF Burton-on-Trent, UK"}}
{"0":{"lat":53.3056640625,"lon":-1.7578125,"address":"864R+7V Buxton, UK"}}
{"0":{"lat":53.3056640625,"lon":-2.8125,"address":"854P+7X Chester, UK"}}
{"0":{"lat":54.5361328125,"lon":-2.9443359375,"address":"The Estate - Patterdale Caravan Club CL, Grisedale Beck, Penrith CA11 0PJ, UK"}}
{"0":{"lat":53.4814453125,"lon":-0.17578125,"address":"FRJF+HM Grimsby, UK"}}
{"0":{"lat":52.6904296875,"lon":0.263671875,"address":"M7R7+5F Wisbech, UK"}}
{"0":{"lat":51.8115234375,"lon":-4.8779296875,"address":"R46C+JR Haverfordwest, UK"}}
{"0":{"lat":51.9873046875,"lon":-0.1318359375,"address":"XVP9+W7 Baldock, UK"}}
{"0":{"lat":51.4599609375,"lon":-2.021484375,"address":"FX5H+XC Calne, UK"}}
{"0":{"lat":52.7783203125,"lon":0.8349609375,"address":"QRHM+8X Dereham, UK"}}
{"0":{"lat":54.2724609375,"lon":-1.318359375,"address":"7MCJ+XM Thirsk, UK"}}
{"0":{"lat":51.4599609375,"lon":-3.4716796875,"address":"FG5H+X8 Cowbridge, UK"}}
{"0":{"lat":50.6689453125,"lon":-2.7685546875,"address":"M69J+HH Bridport, UK"}}
{"0":{"lat":51.50390625,"lon":-1.8896484375,"address":"G436+H4 Swindon, UK"}}
{"0":{"lat":53.701171875,"lon":-0.9228515625,"address":"P32G+FV Goole, UK"}}
{"0":{"lat":52.5146484375,"lon":-3.955078125,"address":"G27V+VX Machynlleth, UK"}}
{"0":{"lat":52.6904296875,"lon":-3.1201171875,"address":"MVRH+5X Welshpool, UK"}}
{"0":{"lat":52.1630859375,"lon":-3.5595703125,"address":"5C7R+65 Builth Wells, UK"}}
{"0":{"lat":50.9326171875,"lon":-3.69140625,"address":"W8M5+2C Tiverton, UK"}}
{"0":{"lat":51.8994140625,"lon":-2.5048828125,"address":"VFXW+Q2 Ross-on-Wye, UK"}}
{"0":{"lat":53.96484375,"lon":-0.52734375,"address":"XF7F+W3 Driffield, UK"}}
{"0":{"lat":52.03125,"lon":-3.6474609375,"address":"29J3+G2 Llangammarch Wells, UK"}}
{"0":{"lat":50.8447265625,"lon":-1.318359375,"address":"RMVJ+VM Southampton, UK"}}
{"0":{"lat":51.15234375,"lon":-1.93359375,"address":"5328+WH Salisbury, UK"}}
{"0":{"lat":54.140625,"lon":-0.52734375,"address":"4FRF+63 Malton, UK"}}
{"0":{"lat":52.470703125,"lon":-2.28515625,"address":"FPC7+7W Stourbridge, UK"}}
{"0":{"lat":51.064453125,"lon":-3.603515625,"address":"397W+QH Dulverton, UK"}}
{"0":{"lat":52.734375,"lon":-1.0107421875,"address":"PXMQ+PP Melton Mowbray, UK"}}
{"0":{"lat":52.55859375,"lon":0.2197265625,"address":"H659+CV Wisbech, UK"}}
{"0":{"lat":52.646484375,"lon":-0.17578125,"address":"2 Peterborough Rd, Peterborough PE6 0AD, UK"}}
{"0":{"lat":51.8115234375,"lon":-4.658203125,"address":"R86R+JP Whitland, UK"}}
{"0":{"lat":52.734375,"lon":-3.427734375,"address":"PHMC+PW Welshpool, UK"}}
{"0":{"lat":52.8662109375,"lon":-2.8564453125,"address":"V48V+FC Ellesmere, UK"}}
{"0":{"lat":50.9765625,"lon":0.703125,"address":"XPG3+J6 Rye, UK"}}
{"0":{"lat":52.20703125,"lon":-2.63671875,"address":"6947+R8 Leominster, UK"}}
{"0":{"lat":52.6025390625,"lon":-0.4833984375,"address":"JG38+2J Peterborough, UK"}}
{"0":{"lat":53.8330078125,"lon":-2.9443359375,"address":"R3M4+67 Poulton-le-Fylde, UK"}}
{"0":{"lat":53.96484375,"lon":-2.9443359375,"address":"X374+W7 Preston, UK"}}
{"0":{"lat":54.4482421875,"lon":-1.669921875,"address":"C8XJ+72 Middleton Tyas, Richmond, UK"}}
{"0":{"lat":52.0751953125,"lon":0.3076171875,"address":"38G5+32 Cambridge, UK"}}
{"0":{"lat":52.20703125,"lon":-2.8564453125,"address":"644V+RC Leominster, UK"}}
{"0":{"lat":53.349609375,"lon":-2.021484375,"address":"8XXH+RC Stockport, UK"}}
{"0":{"lat":51.7236328125,"lon":-1.3623046875,"address":"PJFQ+F3 Abingdon, UK"}}
{"0":{"lat":50.5810546875,"lon":-3.251953125,"address":"HPJX+C6 Budleigh Salterton, UK"}}
{"0":{"lat":53.3056640625,"lon":-1.93359375,"address":"60 Combs Rd, Combs, High Peak SK23 9UP, UK"}}
{"0":{"lat":52.470703125,"lon":0.8349609375,"address":"FRCM+7X Thetford, UK"}}
{"0":{"lat":51.416015625,"lon":-1.0986328125,"address":"CW82+CG Reading, UK"}}
{"0":{"lat":52.55859375,"lon":-0.3515625,"address":"HJ5X+C9 Peterborough, UK"}}
{"0":{"lat":52.03125,"lon":0.3515625,"address":"29J2+GJ Saffron Walden, UK"}}
{"0":{"lat":52.3388671875,"lon":-3.7353515625,"address":"87Q7+GV Aberystwyth, UK"}}
{"0":{"lat":53.0419921875,"lon":-1.142578125,"address":"Dukes Cottages, Mansfield Rd, Arnold, Nottingham NG5 8PJ, UK"}}
{"0":{"lat":52.822265625,"lon":-3.955078125,"address":"R2CV+WX Talybont, UK"}}
{"0":{"lat":52.1630859375,"lon":-0.3955078125,"address":"5J73+6Q Bedford, UK"}}
{"0":{"lat":51.591796875,"lon":-1.7578125,"address":"Kingsdown School, Hyde Rd, Swindon SN2 7SH, UK"}}
{"0":{"lat":51.9873046875,"lon":-1.845703125,"address":"X5P3+WP Cheltenham, UK"}}
{"0":{"lat":51.3720703125,"lon":0.52734375,"address":"33 Gerald Ave, Chatham ME4 5TF, UK"}}
{"0":{"lat":54.580078125,"lon":-1.23046875,"address":"2 Lower E St, Middlesbrough TS2 1DG, UK"}}
{"0":{"lat":52.91015625,"lon":-4.306640625,"address":"WM6V+38 Pwllheli, UK"}}
{"0":{"lat":54.66796875,"lon":-2.98828125,"address":"M296+5M Penrith, UK"}}
{"0":{"lat":53.701171875,"lon":-1.7138671875,"address":"3 Prospect View, Liversedge WF15 8BD, UK"}}
{"0":{"lat":51.416015625,"lon":-0.3955078125,"address":"CJ83+CQ Sunbury-on-Thames, UK"}}
{"0":{"lat":51.3720703125,"lon":0.7470703125,"address":"9PCW+RR Sittingbourne, UK"}}
{"0":{"lat":54.84375,"lon":-3.1640625,"address":"RRVP+F9 Wigton, UK"}}
{"0":{"lat":51.7236328125,"lon":0.52734375,"address":"PGFG+FW Chelmsford, UK"}}
{"0":{"lat":53.525390625,"lon":-2.8125,"address":"Kenneth Hunt & Sons, 12 Coal Pit Ln, Bickerstaffe, Ormskirk L39 0HH, UK"}}
{"0":{"lat":51.8115234375,"lon":-3.1640625,"address":"RR6P+J9 Ebbw Vale, UK"}}
{"0":{"lat":51.2841796875,"lon":-2.5927734375,"address":"7CM4+MV Radstock, UK"}}
{"0":{"lat":51.9873046875,"lon":0.703125,"address":"XPP3+W6 Sudbury, UK"}}
{"0":{"lat":52.119140625,"lon":1.0107421875,"address":"16 Tye Ln, Willisham, Ipswich IP8 4SR, UK"}}
{"0":{"lat":52.7783203125,"lon":-1.6259765625,"address":"26 Sidings Dr, Burton-on-Trent DE15 9UP, UK"}}
{"0":{"lat":51.3720703125,"lon":0.9228515625,"address":"9WCF+R4 Sheerness, UK"}}
{"0":{"lat":53.525390625,"lon":-1.5380859375,"address":"GFG6+5Q Barnsley, UK"}}
{"0":{"lat":52.3828125,"lon":-3.515625,"address":"9FMM+4P Rhayader, UK"}}
{"0":{"lat":51.8994140625,"lon":0.3515625,"address":"V9X2+QJ Dunmow, UK"}}
{"0":{"lat":50.9326171875,"lon":-4.0869140625,"address":"WWM7+26 Winkleigh, UK"}}
{"0":{"lat":54.5361328125,"lon":-1.318359375,"address":"GMPJ+FM Stockton-on-Tees, UK"}}
{"0":{"lat":52.3388671875,"lon":-2.4169921875,"address":"8HQM+G6 Kidderminster, UK"}}
{"0":{"lat":52.8662109375,"lon":-3.251953125,"address":"VP8X+F6 Llangollen, UK"}}
{"0":{"lat":53.96484375,"lon":-0.615234375,"address":"X97M+WW Driffield, UK"}}
{"0":{"lat":51.8115234375,"lon":0.2197265625,"address":"Dornywood House, Friars Ln, Hatfield Heath, Bishop's Stortford CM22 7BE, UK"}}
{"0":{"lat":53.525390625,"lon":-1.8017578125,"address":"G5GX+57 Holmfirth, UK"}}
{"0":{"lat":52.20703125,"lon":1.2744140625,"address":"674F+RQ Woodbridge, UK"}}
{"0":{"lat":53.96484375,"lon":-1.6259765625,"address":"X97F+WJ Harrogate, UK"}}
{"0":{"lat":51.6357421875,"lon":0.263671875,"address":"J7P7+7F Brentwood, UK"}}
{"0":{"lat":52.470703125,"lon":0.0,"address":"F2C2+72 Huntingdon, UK"}}
{"0":{"lat":52.294921875,"lon":0.3515625,"address":"79V2+XJ Cambridge, UK"}}
{"0":{"lat":51.8994140625,"lon":-2.197265625,"address":"VRX3+Q3 Gloucester, UK"}}
{"0":{"lat":50.6689453125,"lon":-3.4716796875,"address":"MG9H+H8 Exeter, UK"}}
{"0":{"lat":52.998046875,"lon":-2.8125,"address":"X5XP+6X Malpas, UK"}}
{"0":{"lat":51.2841796875,"lon":-1.23046875,"address":"Hazeldene Manor, Tadley RG26 5TT, UK"}}
{"0":{"lat":50.712890625,"lon":-4.2626953125,"address":"PP7P+5W Lifton, UK"}}
{"0":{"lat":50.80078125,"lon":-3.3837890625,"address":"RJ28+8F Cullompton, UK"}}
{"0":{"lat":50.5810546875,"lon":-4.2626953125,"address":"1 Harragrove Cottages, Milton Abbot, Tavistock PL19 0PG, UK"}}
{"0":{"lat":53.349609375,"lon":-2.724609375,"address":"87XG+R5 Widnes, UK"}}
{"0":{"lat":54.140625,"lon":-2.724609375,"address":"47RG+65 Carnforth, UK"}}
{"0":{"lat":52.294921875,"lon":0.7470703125,"address":"7PVW+XR Bury Saint Edmunds, UK"}}
{"0":{"lat":51.416015625,"lon":-1.2744140625,"address":"CP8G+C6 Thatcham, UK"}}
{"0":{"lat":50.537109375,"lon":-3.955078125,"address":"G2PV+RX Yelverton, UK"}}
{"0":{"lat":51.328125,"lon":-1.0107421875,"address":"8XHQ+6P Hook, UK"}}
{"0":{"lat":51.767578125,"lon":-3.0322265625,"address":"QX99+24 Abergavenny, UK"}}
{"0":{"lat":51.85546875,"lon":-2.28515625,"address":"Severn Wy, Gloucester GL2 5LP, UK"}}
{"0":{"lat":52.6904296875,"lon":-0.703125,"address":"M7RW+5Q Oakham, UK"}}
{"0":{"lat":54.052734375,"lon":-1.4501953125,"address":"3G3X+3W Knaresborough, UK"}}
{"0":{"lat":52.734375,"lon":-3.2958984375,"address":"PPM3+PJ Llanfyllin, UK"}}
{"0":{"lat":52.20703125,"lon":-4.833984375,"address":"9C4Q6548+RC"}}
{"0":{"lat":54.31640625,"lon":-2.021484375,"address":"8X8H+HC Leyburn, UK"}}
{"0":{"lat":51.15234375,"lon":-1.0107421875,"address":"5X2Q+WP Alton, UK"}}
{"0":{"lat":53.61328125,"lon":-1.7578125,"address":"J67R+8V Huddersfield, UK"}}
{"0":{"lat":52.91015625,"lon":-2.109375,"address":"WV6R+36 Stone, UK"}}
{"0":{"lat":52.7783203125,"lon":-4.482421875,"address":"QGH9+82 Pwllheli, UK"}}
{"0":{"lat":52.3388671875,"lon":0.3515625,"address":"89Q2+GJ Ely, UK"}}
{"0":{"lat":52.8662109375,"lon":-1.4501953125,"address":"Cuttle Brook Footbridge, Infinity Pk Wy, Chellaston, Derby DE73 5BG, UK"}}
{"0":{"lat":52.2509765625,"lon":-3.779296875,"address":"762C+97 Ystrad Meurig, UK"}}
{"0":{"lat":52.822265625,"lon":-4.21875,"address":"RQCJ+WG Llanbedr, UK"}}
{"0":{"lat":52.0751953125,"lon":-4.658203125,"address":"18 The Ridgeway, Cardigan SA43 3AW, UK"}}
{"0":{"lat":52.8662109375,"lon":-1.2744140625,"address":"VP8G+F6 Derby, UK"}}
{"0":{"lat":52.998046875,"lon":-3.427734375,"address":"XHXC+6W Corwen, UK"}}
{"0":{"lat":53.9208984375,"lon":-0.3955078125,"address":"WJC3+9Q Driffield, UK"}}
{"0":{"lat":53.26171875,"lon":-2.4609375,"address":"5 Birches Ln, Lostock Green, Lostock Gralam, Northwich CW9 7SL, UK"}}
{"0":{"lat":50.9765625,"lon":-0.703125,"address":"X7GW+JQ Midhurst, UK"}}
{"0":{"lat":52.646484375,"lon":-0.439453125,"address":"JHW6+H6 Stamford, UK"}}
{"0":{"lat":51.767578125,"lon":-2.109375,"address":"QV9R+26 Stroud, UK"}}
{"0":{"lat":52.119140625,"lon":-2.021484375,"address":"4X9H+MC Pershore, UK"}}
{"0":{"lat":52.1630859375,"lon":0.966796875,"address":"3 Combs Grn, Combs, Stowmarket IP14 2NP, UK"}}
{"0":{"lat":51.064453125,"lon":-2.4609375,"address":"3G7Q+QJ Wincanton, UK"}}
{"0":{"lat":51.064453125,"lon":-3.955078125,"address":"327V+QX Barnstaple, UK"}}
{"0":{"lat":52.646484375,"lon":-1.8017578125,"address":"J5WX+H7 Lichfield, UK"}}
{"0":{"lat":50.888671875,"lon":-1.0107421875,"address":"16 Goodwood Cl, Waterlooville PO8 8BG, UK"}}
{"0":{"lat":51.85546875,"lon":-3.7353515625,"address":"V747+5V Ystradgynlais, UK"}}
{"0":{"lat":52.4267578125,"lon":-0.5712890625,"address":"CCGH+PF Kettering, UK"}}
{"0":{"lat":51.15234375,"lon":-0.3955078125,"address":"Pond Head Lane, Forest Green, Dorking RH5 5PR, UK"}}
{"0":{"lat":53.0419921875,"lon":-2.0654296875,"address":"Mill Cottage, Mill Ln, Stoke-on-Trent ST9 0BW, UK"}}
{"0":{"lat":50.5810546875,"lon":-3.427734375,"address":"HHJC+CW Dawlish, UK"}}
{"0":{"lat":51.15234375,"lon":-2.8564453125,"address":"542V+WC Bridgwater, UK"}}
{"0":{"lat":52.1630859375,"lon":1.1865234375,"address":"29 Gosbeck Rd, Helmingham, Stowmarket IP14 6EP, UK"}}
{"0":{"lat":53.26171875,"lon":-1.0986328125,"address":"7W62+MG Worksop, UK"}}
{"0":{"lat":50.80078125,"lon":-3.515625,"address":"RF2M+8P Exeter, UK"}}
{"0":{"lat":54.4482421875,"lon":-1.845703125,"address":"C5X3+7P Barnard Castle, UK"}}
{"0":{"lat":52.6025390625,"lon":0.087890625,"address":"J33Q+25 Wisbech, UK"}}
{"0":{"lat":52.470703125,"lon":-0.966796875,"address":"F2CM+77 Market Harborough, UK"}}
{"0":{"lat":54.140625,"lon":-0.703125,"address":"47RW+6Q Malton, UK"}}
{"0":{"lat":52.20703125,"lon":-0.263671875,"address":"6P4P+RG Saint Neots, UK"}}
{"0":{"lat":53.701171875,"lon":-0.0439453125,"address":"PX24+FC Hull, UK"}}
{"0":{"lat":53.8330078125,"lon":-1.4501953125,"address":"10 Aspen View, Leeds LS14 2FE, UK"}}
{"0":{"lat":50.888671875,"lon":-3.955078125,"address":"V2QV+FX Chulmleigh, UK"}}
{"0":{"lat":53.4814453125,"lon":-0.966796875,"address":"F2JM+H7 Doncaster, UK"}}
{"0":{"lat":53.1298828125,"lon":0.087890625,"address":"4 Fenside Rd, Spilsby PE23 5DE, UK"}}
{"0":{"lat":51.3720703125,"lon":0.615234375,"address":"123 Macklands Way, Rainham, Gillingham ME8 7PF, UK"}}
{"0":{"lat":52.3828125,"lon":-4.6142578125,"address":"9C4Q99MP+47"}}
{"0":{"lat":54.0966796875,"lon":-2.900390625,"address":"33WX+MR Morecambe, UK"}}
{"0":{"lat":51.8994140625,"lon":-2.1533203125,"address":"VRXW+QM Cheltenham, UK"}}
{"0":{"lat":50.5810546875,"lon":-4.1748046875,"address":"HRJG+C3 Tavistock, UK"}}
{"0":{"lat":53.26171875,"lon":-1.845703125,"address":"7563+MP Buxton, UK"}}
{"0":{"lat":51.2841796875,"lon":1.0986328125,"address":"73MX+MF Canterbury, UK"}}
{"0":{"lat":52.03125,"lon":1.0546875,"address":"23J3+GV Ipswich, UK"}}
{"0":{"lat":51.7236328125,"lon":-3.603515625,"address":"P9FW+FH Aberdare, UK"}}
{"0":{"lat":51.328125,"lon":-0.2197265625,"address":"20 Osier Way, Banstead SM7 1LL, UK"}}
{"0":{"lat":51.6357421875,"lon":-1.9775390625,"address":"3 Swillbrook Farm Cottages, Minety, Malmesbury SN16 9QA, UK"}}
{"0":{"lat":54.228515625,"lon":-0.703125,"address":"67HW+CQ Pickering, UK"}}
{"0":{"lat":52.9541015625,"lon":-0.2197265625,"address":"XQ3J+J4 Boston, UK"}}
{"0":{"lat":53.9208984375,"lon":-0.3076171875,"address":"WMCR+9X Driffield, UK"}}
{"0":{"lat":54.4482421875,"lon":-1.8896484375,"address":"C4X6+74 Barnard Castle, UK"}}
{"0":{"lat":51.943359375,"lon":-4.2626953125,"address":"WPVP+8W Carmarthen, UK"}}
{"0":{"lat":52.8662109375,"lon":-0.615234375,"address":"V98M+FW Grantham, UK"}}
{"0":{"lat":50.8447265625,"lon":-1.93359375,"address":"R3V8+VH Wimborne, UK"}}
{"0":{"lat":52.822265625,"lon":-0.9228515625,"address":"R3CG+WV Melton Mowbray, UK"}}
{"0":{"lat":51.1083984375,"lon":0.3515625,"address":"4952+9J Tunbridge Wells, UK"}}
{"0":{"lat":52.5146484375,"lon":1.2744140625,"address":"G77F+VQ Saxlingham Thorpe, Norwich, UK"}}
{"0":{"lat":51.767578125,"lon":-2.3291015625,"address":"Wharf Cottage, Bristol Rd, Whitminster, Gloucester GL2 7PB, UK"}}
{"0":{"lat":52.470703125,"lon":-3.076171875,"address":"FWCF+7G Bishops Castle, UK"}}
{"0":{"lat":52.822265625,"lon":-2.28515625,"address":"1 Grange Rd, Knightley, Woodseaves, Gnosall, Stafford ST20 0JX, UK"}}
{"0":{"lat":51.240234375,"lon":-0.3515625,"address":"6JRX+39 Dorking, UK"}}
{"0":{"lat":50.9765625,"lon":-2.9443359375,"address":"X3G4+J7 Taunton, UK"}}
{"0":{"lat":52.9541015625,"lon":-2.7685546875,"address":"X63J+JH Whitchurch, UK"}}
{"0":{"lat":51.767578125,"lon":-1.4501953125,"address":"QG9X+2W Witney, UK"}}
{"0":{"lat":52.294921875,"lon":-4.482421875,"address":"9C4Q7GV9+X2"}}
{"0":{"lat":52.4267578125,"lon":-2.2412109375,"address":"CQG5+PG Kidderminster, UK"}}
{"0":{"lat":52.5146484375,"lon":-3.69140625,"address":"G875+VC Llanbrynmair, UK"}}
{"0":{"lat":53.7451171875,"lon":-2.724609375,"address":"Hurst Grange Park, Hill Rd, Penwortham, Preston PR1 9XH, UK"}}
{"0":{"lat":54.0966796875,"lon":-0.8349609375,"address":"5 Carr Cottages, Low Hutton, Huttons Ambo, York YO60 7HE, UK"}}
{"0":{"lat":51.6357421875,"lon":-0.5712890625,"address":"JCPH+7F Chalfont Saint Giles, UK"}}
{"0":{"lat":51.15234375,"lon":-4.0869140625,"address":"5W27+W6 Barnstaple, UK"}}
{"0":{"lat":52.5146484375,"lon":-1.0546875,"address":"Saddington Lodge\/, Shearsby Rd, Leicester LE8 0QU, UK"}}
{"0":{"lat":52.8662109375,"lon":-0.263671875,"address":"VP8P+FG Spalding, UK"}}
{"0":{"lat":54.052734375,"lon":-2.63671875,"address":"3937+38 Lancaster, UK"}}
{"0":{"lat":51.1083984375,"lon":-0.9228515625,"address":"435G+9V Alton, UK"}}
{"0":{"lat":50.80078125,"lon":-2.548828125,"address":"RF22+8F Dorchester, UK"}}
{"0":{"lat":52.8662109375,"lon":-3.427734375,"address":"VH8C+FW Llanrhaeadr-ym-Mochnant, UK"}}
{"0":{"lat":52.55859375,"lon":-2.9443359375,"address":"H354+C7 Bishops Castle, UK"}}
{"0":{"lat":52.470703125,"lon":0.263671875,"address":"2 Burnt Chimney Drove, Littleport, Ely CB6 1RN, UK"}}
{"0":{"lat":51.767578125,"lon":0.2197265625,"address":"Q699+2V Harlow, UK"}}
{"0":{"lat":52.6025390625,"lon":-3.0322265625,"address":"JX39+24 Montgomery, UK"}}
{"0":{"lat":54.2724609375,"lon":-2.0654296875,"address":"7WCM+XR Leyburn, UK"}}
{"0":{"lat":52.0751953125,"lon":-3.69140625,"address":"38G5+3C Llandovery, UK"}}
{"0":{"lat":54.5361328125,"lon":-2.6806640625,"address":"G8P9+FP Penrith, UK"}}
{"0":{"lat":52.0751953125,"lon":-2.8125,"address":"35GP+3X Credenhill, Hereford, UK"}}
{"0":{"lat":50.712890625,"lon":-3.779296875,"address":"P67C+57 Exeter, UK"}}
{"0":{"lat":50.80078125,"lon":-4.130859375,"address":"RV29+8M Okehampton, UK"}}
{"0":{"lat":51.416015625,"lon":-2.109375,"address":"CV8R+C6 Chippenham, UK"}}
{"0":{"lat":54.052734375,"lon":-0.791015625,"address":"3635+3H Malton, UK"}}
{"0":{"lat":53.173828125,"lon":-1.0107421875,"address":"5XFQ+GP Newark, UK"}}
{"0":{"lat":52.7783203125,"lon":0.7470703125,"address":"QPHW+8R King's Lynn, UK"}}
{"0":{"lat":50.9326171875,"lon":-2.373046875,"address":"WJMG+2Q Sturminster Newton, UK"}}
{"0":{"lat":52.4267578125,"lon":-1.3623046875,"address":"CJGQ+P3 Rugby, UK"}}
{"0":{"lat":52.470703125,"lon":-2.9443359375,"address":"F3C4+77 Lydbury North, UK"}}
{"0":{"lat":51.4599609375,"lon":-1.5380859375,"address":"FF56+XQ Hungerford, UK"}}
{"0":{"lat":53.349609375,"lon":0.087890625,"address":"83XQ+R5 Louth, UK"}}
{"0":{"lat":51.50390625,"lon":-0.0439453125,"address":"32 Leydon Cl, London SE16 5PF, UK"}}
{"0":{"lat":53.173828125,"lon":-2.548828125,"address":"5FF2+GF Winsford, UK"}}
{"0":{"lat":50.537109375,"lon":-4.3505859375,"address":"GJPX+RQ Callington, UK"}}
{"0":{"lat":51.240234375,"lon":-1.93359375,"address":"63R8+3H Salisbury, UK"}}
{"0":{"lat":52.734375,"lon":0.6591796875,"address":"PMM5+PM King's Lynn, UK"}}
{"0":{"lat":54.052734375,"lon":-2.4609375,"address":"3G3Q+3J Lancaster, UK"}}
{"0":{"lat":51.6796875,"lon":-1.8017578125,"address":"M5HX+V7 Swindon, UK"}}
{"0":{"lat":54.5361328125,"lon":-2.900390625,"address":"G3PX+FR Penrith, UK"}}
{"0":{"lat":53.3056640625,"lon":-3.1640625,"address":"8R4P+79 Holywell, UK"}}
{"0":{"lat":54.228515625,"lon":-2.63671875,"address":"69H7+C8 Carnforth, UK"}}
{"0":{"lat":53.173828125,"lon":-1.93359375,"address":"53F8+GH Buxton, UK"}}
{"0":{"lat":54.0966796875,"lon":-2.8125,"address":"35WP+MX Carnforth, UK"}}
{"0":{"lat":54.404296875,"lon":-2.8564453125,"address":"C43V+PC Kendal, UK"}}
{"0":{"lat":53.701171875,"lon":-0.3515625,"address":"PJ2X+F9 Barrow-upon-Humber, UK"}}
{"0":{"lat":51.591796875,"lon":-0.966796875,"address":"H2RM+P7 Henley-on-Thames, UK"}}
{"0":{"lat":52.55859375,"lon":-3.6474609375,"address":"H953+C2 Llanbrynmair, UK"}}
{"0":{"lat":53.6572265625,"lon":-0.791015625,"address":"M645+VH Goole, UK"}}
{"0":{"lat":51.0205078125,"lon":-0.439453125,"address":"2HC6+66 Billingshurst, UK"}}
{"0":{"lat":51.9873046875,"lon":0.0,"address":"X2P2+W2 Buntingford, UK"}}
{"0":{"lat":52.7783203125,"lon":-3.2958984375,"address":"B4391, Llanfyllin SY22 5HT, UK"}}
{"0":{"lat":52.6904296875,"lon":-1.0986328125,"address":"MWR2+5G Leicester, UK"}}
{"0":{"lat":53.7451171875,"lon":-2.4169921875,"address":"40 Stanhill Rd, Oswaldtwistle, Accrington BB5 4PP, UK"}}
{"0":{"lat":51.6357421875,"lon":-0.17578125,"address":"1 Buckingham Ave, London N20 9BU, UK"}}
{"0":{"lat":54.228515625,"lon":-0.6591796875,"address":"68HR+C8 Pickering, UK"}}
{"0":{"lat":54.31640625,"lon":-2.7685546875,"address":"868J+HH Kendal, UK"}}
{"0":{"lat":52.4267578125,"lon":1.2744140625,"address":"C7GF+PQ Harleston, UK"}}
{"0":{"lat":52.0751953125,"lon":-0.4833984375,"address":"3GG8+3J Bedford, UK"}}
{"0":{"lat":51.9873046875,"lon":-4.04296875,"address":"XXP4+WR Carmarthen, UK"}}
{"0":{"lat":52.1630859375,"lon":-4.9658203125,"address":"9C4Q527M+6M"}}
{"0":{"lat":51.15234375,"lon":-0.17578125,"address":"5R2F+WM Gatwick, UK"}}
{"0":{"lat":54.4921875,"lon":-1.58203125,"address":"FCR9+V5 Darlington, UK"}}
{"0":{"lat":52.6025390625,"lon":-3.251953125,"address":"JP3X+26 Welshpool, UK"}}
{"0":{"lat":52.20703125,"lon":-3.4716796875,"address":"6G4H+R8 Builth Wells, UK"}}
{"0":{"lat":51.6796875,"lon":-1.142578125,"address":"MVH4+VXF Oxford, UK"}}
{"0":{"lat":51.943359375,"lon":-1.8896484375,"address":"W4V6+84 Cheltenham, UK"}}
{"0":{"lat":50.888671875,"lon":-3.251953125,"address":"VPQX+F6 Cullompton, UK"}}
{"0":{"lat":51.6796875,"lon":-0.9228515625,"address":"M3HG+VV Chinnor, UK"}}
{"0":{"lat":52.8662109375,"lon":-1.8017578125,"address":"V58X+F7 Uttoxeter, UK"}}
{"0":{"lat":52.6904296875,"lon":-3.8671875,"address":"A487, Dolgellau LL40 2RD, UK"}}
{"0":{"lat":51.416015625,"lon":-0.3076171875,"address":"Tyne House, Samuel Gray Gardens, Kingston upon Thames KT2 5UZ, UK"}}
{"0":{"lat":50.80078125,"lon":-4.1748046875,"address":"RR2G+83 Beaworthy, UK"}}
{"0":{"lat":52.470703125,"lon":-3.9111328125,"address":"F3CQ+7G Talybont, UK"}}
{"0":{"lat":51.1083984375,"lon":0.52734375,"address":"4G5G+9W Cranbrook, UK"}}
{"0":{"lat":54.0087890625,"lon":-2.9443359375,"address":"2354+G7 Morecambe, UK"}}
{"0":{"lat":52.5146484375,"lon":-4.39453125,"address":"9C4QGJ74+V5"}}
{"0":{"lat":50.80078125,"lon":-2.2412109375,"address":"RQ25+8G Blandford Forum, UK"}}
{"0":{"lat":53.6572265625,"lon":-0.3955078125,"address":"MJ43+VQ Barrow-upon-Humber, UK"}}
{"0":{"lat":51.85546875,"lon":-4.21875,"address":"VQ4J+5G Carmarthen, UK"}}
{"0":{"lat":52.9541015625,"lon":-4.0869140625,"address":"XW37+J6 Penrhyndeudraeth, UK"}}
{"0":{"lat":54.052734375,"lon":-1.2744140625,"address":"3P3G+36 Aldwark, York, UK"}}
{"0":{"lat":51.2841796875,"lon":-1.1865234375,"address":"7RM7+M9 Tadley, UK"}}
{"0":{"lat":52.6025390625,"lon":0.263671875,"address":"J737+2F Wisbech, UK"}}
{"0":{"lat":51.943359375,"lon":-1.494140625,"address":"WGV4+88 Chipping Norton, UK"}}
{"0":{"lat":52.7783203125,"lon":-0.263671875,"address":"QPHP+8G Bourne, UK"}}
{"0":{"lat":51.50390625,"lon":-3.5595703125,"address":"55 Tremains Ct, Brackla, Bridgend CF31 2SS, UK"}}
{"0":{"lat":51.8115234375,"lon":-0.17578125,"address":"RR6F+JM Welwyn, UK"}}
{"0":{"lat":52.5146484375,"lon":-4.74609375,"address":"9C4QG773+VH"}}
{"0":{"lat":51.416015625,"lon":-1.8896484375,"address":"C486+C4 Marlborough, UK"}}
{"0":{"lat":53.4375,"lon":-2.900390625,"address":"C3PX+XR Liverpool, UK"}}
{"0":{"lat":54.7998046875,"lon":-2.8125,"address":"Q5XP+WX Carlisle, UK"}}
{"0":{"lat":51.1083984375,"lon":-3.3837890625,"address":"4J58+9F Watchet, UK"}}
{"0":{"lat":53.2177734375,"lon":-3.1640625,"address":"6R9P+49 Mold, UK"}}
{"0":{"lat":52.470703125,"lon":-0.7470703125,"address":"F7C3+75 Corby, UK"}}
{"0":{"lat":54.0966796875,"lon":-0.4833984375,"address":"3GW8+MJ Driffield, UK"}}
{"0":{"lat":50.888671875,"lon":-3.9990234375,"address":"V2Q2+F9 Winkleigh, UK"}}
{"0":{"lat":52.03125,"lon":-3.7353515625,"address":"27J7+GV Llandovery, UK"}}
{"0":{"lat":52.6025390625,"lon":-4.5263671875,"address":"9C4QJF3F+2F"}}
{"0":{"lat":50.9326171875,"lon":-0.5712890625,"address":"WCMH+2F Pulborough, UK"}}
{"0":{"lat":53.173828125,"lon":-1.318359375,"address":"5MFJ+GM Chesterfield, UK"}}
{"0":{"lat":52.1630859375,"lon":0.439453125,"address":"5C7Q+6Q Newmarket, UK"}}
{"0":{"lat":51.943359375,"lon":-4.21875,"address":"WQVJ+8G Carmarthen, UK"}}
{"0":{"lat":51.85546875,"lon":-1.23046875,"address":"VQ49+5R Bicester, UK"}}
{"0":{"lat":51.591796875,"lon":-3.779296875,"address":"2 Eagle Mews, Port Talbot SA13 1DL, UK"}}
{"0":{"lat":54.052734375,"lon":-2.8125,"address":"14 Long Marsh Ln, Lancaster LA1 5QX, UK"}}
{"0":{"lat":53.3056640625,"lon":-1.669921875,"address":"884J+72 Hope Valley, UK"}}
{"0":{"lat":53.4814453125,"lon":-2.109375,"address":"91A Cambridge St, Ashton-under-Lyne OL7 0EY, UK"}}
{"0":{"lat":52.1630859375,"lon":-2.98828125,"address":"Old Castle Farm, Hereford HR3 6PS, UK"}}
{"0":{"lat":51.3720703125,"lon":0.5712890625,"address":"Priory Court, Priory Rd, Gillingham ME8 6AT, UK"}}
{"0":{"lat":52.1630859375,"lon":-0.703125,"address":"53 Stilebrook Rd, Olney MK46 5EA, UK"}}
{"0":{"lat":52.20703125,"lon":-3.69140625,"address":"6845+RC Rhayader, UK"}}
{"0":{"lat":53.876953125,"lon":-1.58203125,"address":"VCG9+Q5 Leeds, UK"}}
{"0":{"lat":53.3935546875,"lon":0.17578125,"address":"95VG+C8 Louth, UK"}}
{"0":{"lat":52.646484375,"lon":-3.955078125,"address":"9 Tan Y Fedw, Abergynolwyn, Tywyn LL36 9YU, UK"}}
{"0":{"lat":53.7451171875,"lon":-1.142578125,"address":"PVW4+2X Selby, UK"}}
{"0":{"lat":52.998046875,"lon":-3.2958984375,"address":"XPX3+6J Corwen, UK"}}
{"0":{"lat":54.755859375,"lon":-2.9443359375,"address":"Q344+87 Carlisle, UK"}}
{"0":{"lat":51.240234375,"lon":-0.3955078125,"address":"6JR3+3Q Dorking, UK"}}
{"0":{"lat":53.0859375,"lon":-3.0322265625,"address":"3XP9+94 Wrexham, UK"}}
{"0":{"lat":54.052734375,"lon":-2.548828125,"address":"3F32+3F Lancaster, UK"}}
{"0":{"lat":53.26171875,"lon":-3.1640625,"address":"12 Broadacre Cl, Bagillt CH6 6EA, UK"}}
{"0":{"lat":52.5146484375,"lon":-3.251953125,"address":"GP7X+V6 Newtown, UK"}}
{"0":{"lat":53.525390625,"lon":-2.900390625,"address":"G3GX+5R Ormskirk, UK"}}
{"0":{"lat":52.822265625,"lon":-1.5380859375,"address":"RFC6+WQ Derby, UK"}}
{"0":{"lat":52.91015625,"lon":-2.197265625,"address":"WR63+33 Stone, UK"}}
{"0":{"lat":54.228515625,"lon":-0.615234375,"address":"69HM+CW Scarborough, UK"}}
{"0":{"lat":53.5693359375,"lon":-2.28515625,"address":"3 Melton Dr, Bury BL9 8BE, UK"}}
{"0":{"lat":54.0966796875,"lon":-1.0546875,"address":"3WWW+M4 Farlington, York, UK"}}
{"0":{"lat":52.91015625,"lon":-0.5712890625,"address":"WC6H+3F Grantham, UK"}}
{"0":{"lat":51.9873046875,"lon":-0.8349609375,"address":"X5P8+W2 Milton Keynes, UK"}}
{"0":{"lat":50.8447265625,"lon":-3.515625,"address":"RFVM+VP Exeter, UK"}}
{"0":{"lat":52.1630859375,"lon":-1.0546875,"address":"5W7W+64 Towcester, UK"}}
{"0":{"lat":52.3388671875,"lon":0.3076171875,"address":"88Q5+G2 Ely, UK"}}
{"0":{"lat":51.9873046875,"lon":-2.28515625,"address":"XPP7+WW Gloucester, UK"}}
{"0":{"lat":52.03125,"lon":-3.603515625,"address":"29JW+GH Brecon, UK"}}
{"0":{"lat":52.470703125,"lon":-1.7578125,"address":"36 Moseley Dr, Marston Green, Birmingham B37 7AJ, UK"}}
{"0":{"lat":54.0087890625,"lon":-1.9775390625,"address":"225C+GX Skipton, UK"}}
{"0":{"lat":52.55859375,"lon":0.3955078125,"address":"Pembroke House, Hubbard's Drove, Hilgay, Downham Market PE38 0JZ, UK"}}
{"0":{"lat":51.6796875,"lon":-0.6591796875,"address":"M8HR+V8 Amersham, UK"}}
{"0":{"lat":54.228515625,"lon":-1.0546875,"address":"6WHW+C4 Sproxton, York, UK"}}
{"0":{"lat":52.8662109375,"lon":-2.5048828125,"address":"VF8W+F2 Market Drayton, UK"}}
{"0":{"lat":54.6240234375,"lon":-2.63671875,"address":"J9F7+J8 Penrith, UK"}}
{"0":{"lat":51.6796875,"lon":0.3076171875,"address":"M8H5+V2 Ingatestone, UK"}}
{"0":{"lat":51.767578125,"lon":-4.306640625,"address":"QM9V+28 Kidwelly, UK"}}
{"0":{"lat":51.416015625,"lon":-0.6591796875,"address":"C88R+C8 Ascot, UK"}}
{"0":{"lat":53.4375,"lon":-1.845703125,"address":"C5P3+XP Glossop, UK"}}
{"0":{"lat":53.8330078125,"lon":-2.3291015625,"address":"RMMC+69 Clitheroe, UK"}}
{"0":{"lat":52.55859375,"lon":-3.515625,"address":"HF5M+CP Caersws, UK"}}
{"0":{"lat":52.4267578125,"lon":-3.7353515625,"address":"C7G7+PV Aberystwyth, UK"}}
{"0":{"lat":54.228515625,"lon":-0.7470703125,"address":"67H3+C5 Pickering, UK"}}
{"0":{"lat":51.5478515625,"lon":-3.4716796875,"address":"GGXH+48 Bridgend, UK"}}
{"0":{"lat":50.8447265625,"lon":-2.4169921875,"address":"RHVM+V6 Dorchester, UK"}}
{"0":{"lat":52.7783203125,"lon":0.087890625,"address":"Q3HQ+85 Spalding, UK"}}
{"0":{"lat":53.5693359375,"lon":-2.1533203125,"address":"HR9W+PM Manchester, UK"}}
{"0":{"lat":50.9765625,"lon":0.263671875,"address":"Tanyard Cottage, Newick Ln, Heathfield TN21 8PT, UK"}}
{"0":{"lat":51.9873046875,"lon":-5.009765625,"address":"XXPR+W3 Fishguard, UK"}}
{"0":{"lat":51.85546875,"lon":-0.615234375,"address":"V94M+5W Leighton Buzzard, UK"}}
{"0":{"lat":51.15234375,"lon":0.0,"address":"Apsley Grange, Wilderwick Rd, Dormansland, East Grinstead RH19 3NT, UK"}}
{"0":{"lat":51.7236328125,"lon":-2.8564453125,"address":"P4FV+FC Usk, UK"}}
{"0":{"lat":52.822265625,"lon":-0.7470703125,"address":"R7C3+W5 Melton Mowbray, UK"}}
{"0":{"lat":53.9208984375,"lon":-2.724609375,"address":"W7CG+95 Preston, UK"}}
{"0":{"lat":54.0087890625,"lon":-1.23046875,"address":"2Q59+GR Moor Monkton, York, UK"}}
{"0":{"lat":53.26171875,"lon":-3.603515625,"address":"796W+MH Abergele, UK"}}
{"0":{"lat":51.064453125,"lon":1.0107421875,"address":"3276+Q7 Hythe, UK"}}
{"0":{"lat":50.9765625,"lon":-3.8671875,"address":"X4GM+J4 Umberleigh, UK"}}
{"0":{"lat":54.66796875,"lon":-3.1201171875,"address":"MV9H+5X Keswick, UK"}}
{"0":{"lat":53.61328125,"lon":-2.5927734375,"address":"92 Bolton Rd, Adlington, Chorley PR6 9HT, UK"}}
{"0":{"lat":53.61328125,"lon":-2.5048828125,"address":"JF7W+82 Bolton, UK"}}
{"0":{"lat":51.6796875,"lon":-1.6259765625,"address":"M9HF+VJ Faringdon, UK"}}
{"0":{"lat":54.7998046875,"lon":-3.1640625,"address":"QRXP+W9 Wigton, UK"}}
{"0":{"lat":51.85546875,"lon":-0.3515625,"address":"VJ4X+59 Luton, UK"}}
{"0":{"lat":51.7236328125,"lon":-1.40625,"address":"PHFV+FF Witney, UK"}}
{"0":{"lat":54.31640625,"lon":-1.4501953125,"address":"8G8X+HW Northallerton, UK"}}
{"0":{"lat":54.0087890625,"lon":-2.28515625,"address":"2P57+GW Skipton, UK"}}
{"0":{"lat":53.1298828125,"lon":-1.40625,"address":"4HHV+XF Alfreton, UK"}}
{"0":{"lat":51.943359375,"lon":-2.197265625,"address":"WRV3+83 Gloucester, UK"}}
{"0":{"lat":52.9541015625,"lon":-2.5048828125,"address":"Adderley Garage, Adderley, Market Drayton TF9 3TD, UK"}}
{"0":{"lat":53.525390625,"lon":-1.8896484375,"address":"G4G6+54 Glossop, UK"}}
{"0":{"lat":54.140625,"lon":-0.615234375,"address":"49RM+6W Malton, UK"}}
{"0":{"lat":51.6796875,"lon":-0.1318359375,"address":"Holly Cottage, Enfield EN2 8AP, UK"}}
{"0":{"lat":51.1083984375,"lon":-2.373046875,"address":"4J5G+9Q Bruton, UK"}}
{"0":{"lat":50.80078125,"lon":-2.109375,"address":"RV2R+86 Blandford Forum, UK"}}
{"0":{"lat":51.1083984375,"lon":0.0439453125,"address":"425V+9H East Grinstead, UK"}}
{"0":{"lat":53.26171875,"lon":-0.3955078125,"address":"7J63+MQ Market Rasen, UK"}}
{"0":{"lat":52.470703125,"lon":-3.8232421875,"address":"F5CG+7P Aberystwyth, UK"}}
{"0":{"lat":52.470703125,"lon":0.0439453125,"address":"F2CV+7H Chatteris, UK"}}
{"0":{"lat":52.4267578125,"lon":0.263671875,"address":"C7G7+PF Ely, UK"}}
{"0":{"lat":51.328125,"lon":1.0107421875,"address":"Ellenden Farm, Fox\u2019s Cross Road, Whitstable, Kent, Whitstable CT5 3BX, UK"}}
{"0":{"lat":52.2509765625,"lon":-0.087890625,"address":"7W26+9R Cambridge, UK"}}
{"0":{"lat":53.173828125,"lon":-1.8896484375,"address":"54F6+G4 Buxton, UK"}}
{"0":{"lat":51.85546875,"lon":-0.9228515625,"address":"V34G+5V Aylesbury, UK"}}
{"0":{"lat":51.767578125,"lon":-1.0986328125,"address":"QW92+2G Aylesbury, UK"}}
{"0":{"lat":52.55859375,"lon":0.7470703125,"address":"HP5W+CR Thetford, UK"}}
{"0":{"lat":54.4482421875,"lon":-2.5927734375,"address":"CCX4+7V Penrith, UK"}}
{"0":{"lat":50.80078125,"lon":-1.845703125,"address":"R523+8P Ringwood, UK"}}
{"0":{"lat":52.2509765625,"lon":-3.1201171875,"address":"7V2H+9X Presteigne, UK"}}
{"0":{"lat":51.15234375,"lon":-3.8232421875,"address":"552G+WP Minehead, UK"}}
{"0":{"lat":51.591796875,"lon":-0.791015625,"address":"H6R5+PH Marlow, UK"}}
{"0":{"lat":52.822265625,"lon":-4.482421875,"address":"RGC9+W2 Pwllheli, UK"}}
{"0":{"lat":53.26171875,"lon":0.0439453125,"address":"726V+MH Louth, UK"}}
{"0":{"lat":52.1630859375,"lon":-0.4833984375,"address":"5 Park Farm Ct, Clapham, Bedford MK41 6EF, UK"}}
{"0":{"lat":50.7568359375,"lon":-3.1201171875,"address":"Buckhouse Farm, Colyton EX24 6DA, UK"}}
{"0":{"lat":52.8662109375,"lon":-2.9443359375,"address":"V384+F7 Ellesmere, UK"}}
